% program   : RTKLIB ver.EX 2.5.0
% inp file  : C:\1-Data\01-Projet\ProjetPY\Thialf\DC-250802\GNSS\merde.25o
% inp file  : C:\1-Data\01-Projet\ProjetPY\Thialf\DC-250802\GNSS\Prt_214A.25O
% inp file  : C:\1-Data\01-Projet\ProjetPY\Thialf\DC-250802\GNSS\merde.25N
% inp file  : C:\1-Data\01-Projet\ProjetPY\Thialf\DC-250802\GNSS\COD0OPSULT_20252131800_02D_05M_ORB.SP3
% inp file  : C:\1-Data\01-Projet\ProjetPY\Thialf\DC-250802\GNSS\ESA0OPSFIN_20252100000_01D_30S_CLK.CLK
% inp file  : C:\1-Data\01-Projet\ProjetPY\Thialf\DC-250802\GNSS\merde.25G
% obs start : 2025/08/01 23:59:42.0 UTC (week2377 518400.0s)
% obs end   : 2025/08/02 07:15:32.0 UTC (week2377 544550.0s)
% pos mode  : Kinematic
% freqs     : L1+L2/E5b+L5+L6
% solution  : Combined-Phase Reset
% elev mask : 13.0 deg
% dynamics  : off
% tidecorr  :
% ionos opt : Broadcast
% tropo opt : OFF
% ephemeris : Precise
% navi sys  : GPS GLONASS Galileo QZSS
% amb res   : Fix and Hold
% amb glo   : Fix and Hold
% val thres : 3.0
% antenna1  :                       ( 0.0000  0.0000  0.0000)
% antenna2  :                       ( 0.0000  0.0000  0.0000)
% ref pos   :  40.321125120  -73.251730626     7.5671
%
% (e/n/u-baseline=WGS84,Q=1:fix,2:float,3:sbas,4:dgps,5:single,6:ppp,ns=# of satellites)
%  UTC                   e-baseline(m)  n-baseline(m)  u-baseline(m)   Q  ns   sde(m)   sdn(m)   sdu(m)  sden(m)  sdnu(m)  sdue(m) age(s)  ratio
2025/08/02 00:06:35.000        23.3573         5.1966        -0.1236   2  11   1.1348   1.2439   2.6258   0.4645  -0.4260  -0.4403 -30.00    0.0
2025/08/02 00:06:36.000        23.3796         5.2131        -0.1367   2  11   0.8408   0.9170   1.9451   0.3376  -0.3521  -0.3103 -29.00    0.0
2025/08/02 00:06:37.000        23.4110         5.2023        -0.1382   2  11   0.6981   0.7599   1.6149   0.2781  -0.3028  -0.2522 -28.00    0.0
2025/08/02 00:06:38.000        23.4469         5.1851        -0.1521   2  11   0.6097   0.6630   1.4106   0.2419  -0.2692  -0.2177 -27.00    0.0
2025/08/02 00:06:39.000        23.4470         5.1808        -0.1579   2  11   0.5482   0.5957   1.2683   0.2168  -0.2446  -0.1942 -26.00    0.0
2025/08/02 00:06:40.000        23.4201         5.1725        -0.1447   2  11   0.5022   0.5455   1.1618   0.1982  -0.2256  -0.1769 -25.00    0.0
2025/08/02 00:06:41.000        23.3965         5.1804        -0.1172   2  11   0.4661   0.5061   1.0783   0.1836  -0.2105  -0.1634 -24.00    0.0
2025/08/02 00:06:42.000        23.3699         5.1901        -0.1134   2  11   0.4368   0.4741   1.0105   0.1718  -0.1981  -0.1526 -23.00    0.0
2025/08/02 00:06:43.000        23.3777         5.2099        -0.1535   2  11   0.4124   0.4475   0.9541   0.1620  -0.1876  -0.1437 -22.00    0.0
2025/08/02 00:06:44.000        23.4074         5.2218        -0.2046   2  11   0.3917   0.4249   0.9060   0.1537  -0.1787  -0.1361 -21.00    0.0
2025/08/02 00:06:45.000        23.4441         5.2051        -0.2378   2  11   0.3738   0.4053   0.8646   0.1464  -0.1710  -0.1296 -20.00    0.0
2025/08/02 00:06:46.000        23.4996         5.1692        -0.2540   2  11   0.3581   0.3882   0.8282   0.1401  -0.1642  -0.1239 -19.00    0.0
2025/08/02 00:06:47.000        23.5242         5.1200        -0.2137   2  11   0.3443   0.3731   0.7961   0.1345  -0.1583  -0.1189 -18.00    0.0
2025/08/02 00:06:48.000        23.5088         5.0956        -0.1728   2  11   0.3319   0.3595   0.7673   0.1295  -0.1530  -0.1144 -17.00    0.0
2025/08/02 00:06:49.000        23.4404         5.1269        -0.1388   2  11   0.3208   0.3473   0.7414   0.1250  -0.1482  -0.1104 -16.00    0.0
2025/08/02 00:06:50.000        23.3606         5.1802        -0.1466   2  11   0.3107   0.3362   0.7178   0.1209  -0.1439  -0.1068 -15.00    0.0
2025/08/02 00:06:51.000        23.3490         5.2184        -0.1893   2  11   0.3015   0.3260   0.6963   0.1171  -0.1401  -0.1034 -14.00    0.0
2025/08/02 00:06:52.000        23.3941         5.1794        -0.2695   2  11   0.2930   0.3167   0.6765   0.1136  -0.1366  -0.1004 -13.00    0.0
2025/08/02 00:06:53.000        23.4705         5.1182        -0.3360   2  11   0.2852   0.3081   0.6581   0.1104  -0.1334  -0.0976 -12.00    0.0
2025/08/02 00:06:54.000        23.5263         5.0570        -0.3404   2  11   0.2780   0.3001   0.6411   0.1074  -0.1305  -0.0951 -11.00    0.0
2025/08/02 00:06:55.000        23.5472         5.0194        -0.3236   2  10   0.2715   0.2934   0.6263   0.1057  -0.1248  -0.0906 -10.00    0.0
2025/08/02 00:06:56.000        23.5292         5.0015        -0.3146   2  11   0.2652   0.2860   0.6111   0.1025  -0.1234  -0.0890  -9.00    0.0
2025/08/02 00:06:57.000        23.4924         5.0102        -0.3458   2  11   0.2593   0.2793   0.5970   0.1000  -0.1215  -0.0871  -8.00    0.0
2025/08/02 00:06:58.000        23.4561         5.0304        -0.4103   2  11   0.2538   0.2730   0.5837   0.0976  -0.1197  -0.0852  -7.00    0.0
2025/08/02 00:06:59.000        23.4496         5.0306        -0.4867   2  11   0.2487   0.2671   0.5710   0.0954  -0.1181  -0.0834  -6.00    0.0
2025/08/02 00:07:00.000        23.4902         4.9675        -0.5788   2  11   0.2438   0.2613   0.5590   0.0930  -0.1170  -0.0820  -5.00    0.0
2025/08/02 00:07:01.000        23.5629         4.8827        -0.6001   2  11   0.2392   0.2559   0.5474   0.0909  -0.1158  -0.0805  -4.00    0.0
2025/08/02 00:07:02.000        23.6147         4.8242        -0.6112   2  11   0.2348   0.2507   0.5364   0.0889  -0.1147  -0.0790  -3.00    0.0
2025/08/02 00:07:03.000        23.6072         4.8268        -0.6003   2  11   0.2307   0.2458   0.5259   0.0870  -0.1137  -0.0776  -2.00    0.0
2025/08/02 00:07:04.000        23.5535         4.8368        -0.6791   2  11   0.2267   0.2411   0.5159   0.0852  -0.1128  -0.0763  -1.00    0.0
2025/08/02 00:07:05.000        23.4423         4.6716         0.8376   1  11   0.0042   0.0048   0.0108   0.0011   0.0010  -0.0028   0.00  120.1
2025/08/02 00:07:06.000        23.4322         4.6687         0.8623   1  11   0.0038   0.0049   0.0108   0.0015   0.0016  -0.0031   0.00  121.5
2025/08/02 00:07:07.000        23.4149         4.6369         0.9450   1  12   0.0042   0.0046   0.0103  -0.0003   0.0012  -0.0020   0.00  122.9
2025/08/02 00:07:08.000        23.4141         4.6267         0.9442   1  12   0.0045   0.0046   0.0104   0.0013   0.0018  -0.0022   0.00  125.5
2025/08/02 00:07:09.000        23.4004         4.6232         0.9839   1  12   0.0044   0.0051   0.0107   0.0007   0.0022  -0.0023   1.00  127.7
2025/08/02 00:07:10.000        23.3886         4.6276         0.9856   1  12   0.0043   0.0050   0.0111   0.0017   0.0025  -0.0018   2.00  129.6
2025/08/02 00:07:11.000        23.4735         4.6301         0.7238   2  12   0.0033   0.0037   0.0079   0.0010   0.0011  -0.0008   3.00    6.0
2025/08/02 00:07:12.000        23.5078         4.6300         0.6739   2  12   0.0037   0.0040   0.0084   0.0014   0.0012  -0.0009   4.00    6.6
2025/08/02 00:07:13.000        23.5606         4.6310         0.6266   2  12   0.0039   0.0043   0.0090   0.0013   0.0016  -0.0009   5.00    6.9
2025/08/02 00:07:14.000        23.5941         4.6112         0.5841   2  12   0.0042   0.0048   0.0097   0.0013   0.0020  -0.0011   6.00    7.2
2025/08/02 00:07:15.000        23.6065         4.6060         0.5820   2  12   0.0045   0.0051   0.0104   0.0016   0.0022  -0.0012   7.00    7.4
2025/08/02 00:07:16.000        23.6096         4.5897         0.6206   2  12   0.0048   0.0055   0.0112   0.0017   0.0027  -0.0011   8.00    7.3
2025/08/02 00:07:17.000        23.6069         4.5726         0.6598   2  12   0.0052   0.0059   0.0120   0.0018   0.0030  -0.0012   9.00    7.4
2025/08/02 00:07:18.000        23.5910         4.5606         0.7040   2  12   0.0055   0.0064   0.0129   0.0020   0.0033  -0.0012  10.00    7.4
2025/08/02 00:07:19.000        23.5696         4.5589         0.7388   2  12   0.0059   0.0068   0.0137   0.0021   0.0037  -0.0013  11.00    7.5
2025/08/02 00:07:20.000        23.5607         4.5411         0.7342   2  12   0.0062   0.0072   0.0146   0.0023   0.0040  -0.0013  12.00    7.5
2025/08/02 00:07:21.000        23.5713         4.5257         0.7051   2  12   0.0066   0.0077   0.0155   0.0024   0.0044  -0.0014  13.00    7.3
2025/08/02 00:07:22.000        23.5760         4.5180         0.7021   2  12   0.0070   0.0081   0.0164   0.0026   0.0048  -0.0015  14.00    7.3
2025/08/02 00:07:23.000        23.5894         4.5195         0.6899   2  12   0.0074   0.0086   0.0173   0.0027   0.0051  -0.0015  15.00    7.3
2025/08/02 00:07:24.000        23.5904         4.5197         0.6761   2  12   0.0078   0.0091   0.0183   0.0029   0.0055  -0.0016  16.00    7.3
2025/08/02 00:07:25.000        23.5923         4.5075         0.6502   2  12   0.0082   0.0096   0.0192   0.0030   0.0058  -0.0016  17.00    7.1
2025/08/02 00:07:26.000        23.5971         4.4958         0.6091   2  12   0.0086   0.0101   0.0202   0.0032   0.0062  -0.0018  18.00    7.0
2025/08/02 00:07:27.000        23.6108         4.4905         0.5854   2  12   0.0090   0.0106   0.0212   0.0034   0.0066  -0.0019  19.00    7.0
2025/08/02 00:07:28.000        23.6296         4.4908         0.5739   2  12   0.0094   0.0111   0.0222   0.0036   0.0070  -0.0020  20.00    6.9
2025/08/02 00:07:29.000        23.6566         4.4874         0.5615   2  12   0.0098   0.0116   0.0232   0.0038   0.0073  -0.0020  21.00    6.8
2025/08/02 00:07:30.000        23.6736         4.4826         0.5382   2  12   0.0102   0.0121   0.0242   0.0039   0.0077  -0.0022  22.00    6.8
2025/08/02 00:07:31.000        23.6979         4.4801         0.5147   2  12   0.0107   0.0126   0.0252   0.0041   0.0082  -0.0023  23.00    5.8
2025/08/02 00:07:32.000        23.7302         4.4712         0.4985   2  12   0.0111   0.0132   0.0262   0.0044   0.0086  -0.0024  24.00    5.9
2025/08/02 00:07:33.000        23.7579         4.4635         0.5074   2  12   0.0115   0.0137   0.0273   0.0046   0.0091  -0.0026  25.00    5.9
2025/08/02 00:07:34.000        23.7626         4.4512         0.5433   2  12   0.0120   0.0143   0.0284   0.0049   0.0096  -0.0028  26.00    6.0
2025/08/02 00:07:35.000        23.7209         4.4621         0.5938   2  12   0.0125   0.0150   0.0296   0.0052   0.0102  -0.0030  27.00    6.0
2025/08/02 00:07:36.000        23.6554         4.4913         0.6437   2  12   0.0131   0.0157   0.0309   0.0056   0.0109  -0.0034  28.00    6.1
2025/08/02 00:07:37.000        23.6124         4.5128         0.6670   2  12   0.0137   0.0166   0.0324   0.0062   0.0118  -0.0040  29.00    6.2
2025/08/02 00:07:38.000        23.6319         4.5092         0.6661   2  12   0.0147   0.0180   0.0346   0.0071   0.0135  -0.0053  30.00    6.2
2025/08/02 00:09:00.000        23.5272         4.5547         0.5480   1  12   0.0153   0.0182   0.0363   0.0080   0.0126  -0.0081 -30.00    8.7
2025/08/02 00:09:01.000        23.4726         4.6054         0.5749   1  12   0.0142   0.0168   0.0336   0.0069   0.0113  -0.0063 -29.00    8.8
2025/08/02 00:09:02.000        23.4408         4.6277         0.5957   1  12   0.0135   0.0158   0.0317   0.0061   0.0105  -0.0052 -28.00    9.0
2025/08/02 00:09:03.000        23.4535         4.6029         0.5960   1  12   0.0128   0.0151   0.0303   0.0056   0.0100  -0.0044 -27.00    9.2
2025/08/02 00:09:04.000        23.4878         4.5784         0.5789   1  12   0.0123   0.0144   0.0290   0.0052   0.0096  -0.0037 -26.00    9.4
2025/08/02 00:09:05.000        23.5119         4.5695         0.5592   1  12   0.0118   0.0138   0.0278   0.0048   0.0091  -0.0032 -25.00    9.6
2025/08/02 00:09:06.000        23.5090         4.5876         0.5218   1  12   0.0113   0.0132   0.0266   0.0045   0.0087  -0.0028 -24.00    9.8
2025/08/02 00:09:07.000        23.4888         4.6255         0.5096   1  12   0.0108   0.0126   0.0255   0.0043   0.0084  -0.0025 -23.00   10.0
2025/08/02 00:09:08.000        23.4667         4.6485         0.4993   1  12   0.0104   0.0121   0.0245   0.0040   0.0080  -0.0022 -22.00   10.2
2025/08/02 00:09:09.000        23.4669         4.6516         0.4857   1  12   0.0099   0.0116   0.0234   0.0038   0.0076  -0.0020 -21.00   10.4
2025/08/02 00:09:10.000        23.4778         4.6448         0.4794   1  12   0.0095   0.0111   0.0224   0.0036   0.0073  -0.0018 -20.00   10.6
2025/08/02 00:09:11.000        23.4673         4.6454         0.4892   1  12   0.0091   0.0106   0.0214   0.0034   0.0069  -0.0016 -19.00   10.7
2025/08/02 00:09:12.000        23.4490         4.6463         0.4920   1  12   0.0086   0.0101   0.0204   0.0032   0.0065  -0.0015 -18.00   10.8
2025/08/02 00:09:13.000        23.4347         4.6444         0.5082   1  12   0.0082   0.0096   0.0195   0.0030   0.0062  -0.0014 -17.00   10.9
2025/08/02 00:09:14.000        23.4536         4.6440         0.4915   1  12   0.0078   0.0091   0.0185   0.0028   0.0058  -0.0013 -16.00   11.0
2025/08/02 00:09:15.000        23.5077         4.6397         0.4492   1  12   0.0075   0.0086   0.0176   0.0027   0.0055  -0.0013 -15.00   11.0
2025/08/02 00:09:16.000        23.5626         4.6342         0.4139   1  12   0.0071   0.0082   0.0167   0.0025   0.0051  -0.0012 -14.00   11.0
2025/08/02 00:09:17.000        23.5778         4.6197         0.4084   1  12   0.0067   0.0077   0.0158   0.0024   0.0048  -0.0013 -13.00   11.0
2025/08/02 00:09:18.000        23.5626         4.6195         0.4191   1  12   0.0062   0.0071   0.0146   0.0019   0.0043   0.0007 -12.00    3.4
2025/08/02 00:09:19.000        23.5206         4.6293         0.4886   1  12   0.0058   0.0067   0.0138   0.0017   0.0040  -0.0006 -11.00    3.9
2025/08/02 00:09:20.000        23.4732         4.6371         0.5364   1  12   0.0054   0.0062   0.0128   0.0014   0.0036   0.0010 -10.00    3.9
2025/08/02 00:09:21.000        23.4441         4.6508         0.5835   1  12   0.0051   0.0058   0.0120   0.0013   0.0033   0.0004  -9.00    4.4
2025/08/02 00:09:22.000        23.4562         4.6437         0.5711   1  12   0.0048   0.0054   0.0113   0.0011   0.0031   0.0001  -8.00    5.1
2025/08/02 00:09:23.000        23.4921         4.6377         0.5386   1  12   0.0045   0.0050   0.0106   0.0010   0.0028  -0.0006  -7.00    5.9
2025/08/02 00:09:24.000        23.5386         4.6282         0.4976   1  12   0.0043   0.0046   0.0099   0.0011   0.0025  -0.0010  -6.00    7.1
2025/08/02 00:09:25.000        23.5692         4.6078         0.4952   1  12   0.0039   0.0044   0.0093   0.0007   0.0022  -0.0009  -5.00    8.1
2025/08/02 00:09:26.000        23.5687         4.5931         0.5144   1  12   0.0038   0.0040   0.0088   0.0011   0.0020  -0.0012  -4.00    9.6
2025/08/02 00:09:27.000        23.5348         4.6020         0.5430   1  12   0.0036   0.0037   0.0084   0.0006   0.0019  -0.0013  -3.00   10.8
2025/08/02 00:09:28.000        23.5104         4.6149         0.5493   1  12   0.0034   0.0034   0.0083  -0.0008   0.0022  -0.0014  -2.00   11.7
2025/08/02 00:09:29.000        23.5082         4.6356         0.5386   1  12   0.0036   0.0030   0.0084   0.0005   0.0020  -0.0009  -1.00   12.4
2025/08/02 00:09:30.000        23.5389         4.6270         0.4963   1  12   0.0028   0.0028   0.0065   0.0010   0.0005   0.0013   0.00   13.1
2025/08/02 00:09:31.000        23.5329         4.6260         0.4874   1  12   0.0028   0.0029   0.0064   0.0007  -0.0002   0.0011   0.00   13.2
2025/08/02 00:09:32.000        23.5367         4.6175         0.4690   1  12   0.0028   0.0029   0.0063   0.0009  -0.0009   0.0010   0.00   13.6
2025/08/02 00:09:33.000        23.5329         4.6116         0.4880   1  12   0.0025   0.0032   0.0065  -0.0004   0.0010   0.0007   0.00   13.7
2025/08/02 00:09:34.000        23.5378         4.6193         0.4952   1  12   0.0030   0.0028   0.0065   0.0010   0.0010  -0.0007   0.00   14.1
2025/08/02 00:09:35.000        23.5324         4.6231         0.5047   1  12   0.0029   0.0032   0.0063   0.0006  -0.0006   0.0008   0.00   14.3
2025/08/02 00:09:36.000        23.5394         4.6194         0.5065   1  12   0.0028   0.0032   0.0064   0.0011  -0.0009   0.0012   0.00   14.9
2025/08/02 00:09:37.000        23.5382         4.6221         0.5003   1  12   0.0029   0.0028   0.0064   0.0008   0.0004   0.0009   0.00   15.0
2025/08/02 00:09:38.000        23.5365         4.6267         0.4976   1  12   0.0027   0.0030   0.0064   0.0008  -0.0004   0.0008   0.00   15.2
2025/08/02 00:09:39.000        23.5313         4.6214         0.5065   1  12   0.0029   0.0028   0.0064   0.0010   0.0009   0.0005   0.00   15.1
2025/08/02 00:09:40.000        23.5395         4.6160         0.5098   1  12   0.0028   0.0027   0.0065   0.0009   0.0010   0.0008   0.00   15.1
2025/08/02 00:09:41.000        23.5371         4.6079         0.4999   1  12   0.0028   0.0030   0.0064   0.0009   0.0004   0.0007   0.00   15.1
2025/08/02 00:09:42.000        23.5410         4.6019         0.5037   1  12   0.0030   0.0031   0.0063   0.0007  -0.0006   0.0007   0.00   15.2
2025/08/02 00:09:43.000        23.5340         4.6019         0.5016   1  12   0.0030   0.0028   0.0064   0.0010   0.0009   0.0001   0.00   15.2
2025/08/02 00:09:44.000        23.5407         4.6026         0.5029   1  12   0.0028   0.0032   0.0063   0.0009  -0.0007   0.0012   0.00   15.0
2025/08/02 00:09:45.000        23.5407         4.6141         0.5075   1  12   0.0030   0.0032   0.0065  -0.0007   0.0010   0.0003   0.00   15.0
2025/08/02 00:09:46.000        23.5364         4.6196         0.5097   1  12   0.0028   0.0033   0.0062   0.0012  -0.0008   0.0010   0.00   14.9
2025/08/02 00:09:47.000        23.5434         4.6066         0.5107   1  12   0.0028   0.0031   0.0063   0.0010  -0.0005   0.0004   0.00   15.2
2025/08/02 00:09:48.000        23.5434         4.5956         0.4931   1  12   0.0028   0.0028   0.0065   0.0011   0.0012   0.0004   0.00   15.1
2025/08/02 00:09:49.000        23.5435         4.5951         0.4887   1  12   0.0028   0.0029   0.0065  -0.0006   0.0012   0.0007   0.00   15.1
2025/08/02 00:09:50.000        23.5406         4.5940         0.4884   1  12   0.0026   0.0030   0.0064   0.0006   0.0006   0.0013   0.00   15.0
2025/08/02 00:09:51.000        23.5393         4.5977         0.4958   1  12   0.0026   0.0031   0.0064   0.0004   0.0002   0.0014   0.00   14.9
2025/08/02 00:09:52.000        23.5406         4.5965         0.4988   1  12   0.0028   0.0030   0.0064   0.0008   0.0008   0.0004   0.00   14.8
2025/08/02 00:09:53.000        23.5327         4.6082         0.5138   1  12   0.0029   0.0029   0.0065   0.0006   0.0009   0.0007   0.00   14.6
2025/08/02 00:09:54.000        23.5381         4.6175         0.5111   1  12   0.0028   0.0030   0.0065  -0.0005   0.0010   0.0008   0.00   14.3
2025/08/02 00:09:55.000        23.5398         4.6225         0.4973   1  12   0.0028   0.0029   0.0064   0.0013   0.0010   0.0010   0.00   14.2
2025/08/02 00:09:56.000        23.5357         4.6091         0.4816   1  12   0.0030   0.0030   0.0064   0.0008   0.0006   0.0011   0.00   13.9
2025/08/02 00:09:57.000        23.5425         4.5891         0.4836   1  12   0.0028   0.0031   0.0065  -0.0002   0.0013  -0.0003   0.00   13.6
2025/08/02 00:09:58.000        23.5469         4.5877         0.4597   1  12   0.0030   0.0032   0.0064   0.0009   0.0006   0.0010   0.00   13.4
2025/08/02 00:09:59.000        23.5406         4.5854         0.4851   1  12   0.0030   0.0028   0.0064   0.0009   0.0010   0.0010   0.00   13.2
2025/08/02 00:10:00.000        23.5351         4.6032         0.4894   1  12   0.0028   0.0030   0.0065  -0.0008   0.0010  -0.0007   0.00   13.0
2025/08/02 00:10:01.000        23.5459         4.6156         0.5090   1  12   0.0029   0.0030   0.0065   0.0007   0.0012  -0.0006   0.00   12.9
2025/08/02 00:10:02.000        23.5324         4.6159         0.5184   1  12   0.0028   0.0028   0.0065   0.0009   0.0012   0.0007   0.00   12.7
2025/08/02 00:10:03.000        23.5402         4.6230         0.5097   1  12   0.0029   0.0030   0.0066   0.0007   0.0013   0.0011   0.00   12.5
2025/08/02 00:10:04.000        23.5400         4.6094         0.5020   1  12   0.0028   0.0031   0.0065   0.0004   0.0012   0.0009   0.00   12.6
2025/08/02 00:10:05.000        23.5383         4.5933         0.4956   1  12   0.0030   0.0032   0.0065   0.0008   0.0007   0.0016   0.00   12.7
2025/08/02 00:10:06.000        23.5464         4.5854         0.4993   1  12   0.0027   0.0031   0.0065   0.0008   0.0013   0.0007   0.00   12.6
2025/08/02 00:10:07.000        23.5427         4.5838         0.5138   1  12   0.0028   0.0033   0.0066   0.0008   0.0015   0.0012   0.00   12.5
2025/08/02 00:10:08.000        23.5403         4.5907         0.5049   1  12   0.0027   0.0032   0.0064   0.0011   0.0001   0.0013   0.00   12.5
2025/08/02 00:10:09.000        23.5368         4.6066         0.5242   1  12   0.0030   0.0033   0.0067   0.0010   0.0017   0.0016   0.00   12.4
2025/08/02 00:10:10.000        23.5358         4.6079         0.5381   1  11   0.0029   0.0039   0.0072   0.0018   0.0027   0.0020   0.00   18.0
2025/08/02 00:10:11.000        23.5355         4.5942         0.5217   1  11   0.0028   0.0038   0.0072   0.0019   0.0027   0.0021   0.00   17.8
2025/08/02 00:10:12.000        23.5364         4.5849         0.5304   1  12   0.0027   0.0033   0.0067   0.0012   0.0017   0.0012   0.00   17.9
2025/08/02 00:10:13.000        23.5479         4.5777         0.4959   1  12   0.0029   0.0030   0.0066   0.0012   0.0013   0.0013   0.00   17.8
2025/08/02 00:10:14.000        23.5429         4.5785         0.4976   1  12   0.0028   0.0030   0.0064   0.0009   0.0008   0.0007   0.00    4.0
2025/08/02 00:10:15.000        23.5558         4.5922         0.4659   1  12   0.0030   0.0032   0.0065   0.0002   0.0013   0.0011   0.00    4.8
2025/08/02 00:10:16.000        23.5451         4.6067         0.4539   1  12   0.0025   0.0031   0.0065   0.0001   0.0010  -0.0008   0.00    6.1
2025/08/02 00:10:17.000        23.5488         4.6011         0.4599   1  12   0.0028   0.0031   0.0065   0.0007   0.0010   0.0007   0.00    6.6
2025/08/02 00:10:18.000        23.5483         4.5878         0.4719   1  12   0.0027   0.0034   0.0063   0.0009  -0.0010   0.0006   0.00    7.4
2025/08/02 00:10:19.000        23.5472         4.5770         0.4958   1  12   0.0028   0.0032   0.0063   0.0007  -0.0008   0.0016   0.00    8.1
2025/08/02 00:10:20.000        23.5438         4.5708         0.4995   1  12   0.0028   0.0027   0.0065   0.0004   0.0010   0.0008   0.00    9.0
2025/08/02 00:10:21.000        23.5421         4.5741         0.5042   1  12   0.0029   0.0034   0.0063   0.0004  -0.0008   0.0011   0.00    9.8
2025/08/02 00:10:22.000        23.5436         4.5747         0.4999   1  12   0.0025   0.0029   0.0064   0.0011   0.0011  -0.0009   0.00   10.6
2025/08/02 00:10:23.000        23.5438         4.5789         0.5002   1  12   0.0026   0.0029   0.0065   0.0008  -0.0004   0.0010   0.00   11.3
2025/08/02 00:10:24.000        23.5456         4.5809         0.5003   1  12   0.0031   0.0034   0.0063   0.0004  -0.0009   0.0007   0.00   12.0
2025/08/02 00:10:25.000        23.5408         4.5823         0.5184   1  12   0.0026   0.0031   0.0062   0.0008  -0.0010   0.0011   0.00   12.7
2025/08/02 00:10:26.000        23.5447         4.5732         0.5116   1  12   0.0027   0.0034   0.0062   0.0009  -0.0008   0.0008   0.00   13.6
2025/08/02 00:10:27.000        23.5495         4.5607         0.5155   1  12   0.0027   0.0028   0.0065   0.0004   0.0011   0.0005   0.00   13.9
2025/08/02 00:10:28.000        23.5499         4.5608         0.5236   1  12   0.0028   0.0031   0.0063   0.0009   0.0007   0.0015   0.00   14.5
2025/08/02 00:10:29.000        23.5478         4.5603         0.5118   1  12   0.0026   0.0027   0.0064   0.0004   0.0010   0.0006   0.00   14.7
2025/08/02 00:10:30.000        23.5477         4.5693         0.4962   1  12   0.0026   0.0030   0.0064   0.0008  -0.0002   0.0008   0.00   14.7
2025/08/02 00:10:31.000        23.5399         4.5778         0.5068   1  12   0.0026   0.0031   0.0063   0.0009  -0.0010   0.0016   0.00   14.6
2025/08/02 00:10:32.000        23.5459         4.5733         0.4957   1  12   0.0029   0.0030   0.0064   0.0004   0.0009   0.0006   0.00   14.4
2025/08/02 00:10:33.000        23.5477         4.5715         0.4874   1  12   0.0027   0.0029   0.0065   0.0006   0.0009   0.0010   0.00   14.2
2025/08/02 00:10:34.000        23.5463         4.5729         0.4881   1  12   0.0030   0.0032   0.0062   0.0007  -0.0013   0.0011   0.00   14.1
2025/08/02 00:10:35.000        23.5439         4.5736         0.4922   1  12   0.0029   0.0030   0.0064   0.0005   0.0008   0.0004   0.00   14.0
2025/08/02 00:10:36.000        23.5443         4.5684         0.4967   1  12   0.0027   0.0030   0.0064   0.0005   0.0009   0.0007   0.00   13.8
2025/08/02 00:10:37.000        23.5386         4.5636         0.4989   1  12   0.0030   0.0030   0.0064   0.0010   0.0006   0.0012   0.00   13.7
2025/08/02 00:10:38.000        23.5452         4.5733         0.5127   1  12   0.0029   0.0031   0.0064   0.0008  -0.0003   0.0006   0.00   13.5
2025/08/02 00:10:39.000        23.5383         4.5788         0.5121   1  12   0.0027   0.0029   0.0066  -0.0010   0.0013   0.0008   0.00   13.6
2025/08/02 00:10:40.000        23.5394         4.5852         0.5124   1  12   0.0029   0.0031   0.0063   0.0008  -0.0008   0.0013   0.00   13.5
2025/08/02 00:10:41.000        23.5404         4.5836         0.5204   1  12   0.0029   0.0033   0.0063   0.0012  -0.0010   0.0012   0.00   13.5
2025/08/02 00:10:42.000        23.5459         4.5821         0.5195   1  12   0.0027   0.0030   0.0063   0.0012  -0.0012   0.0015   0.00   13.6
2025/08/02 00:10:43.000        23.5407         4.5807         0.5231   1  12   0.0027   0.0032   0.0064  -0.0001  -0.0001   0.0011   0.00   13.7
2025/08/02 00:10:44.000        23.5471         4.5864         0.5309   1  12   0.0031   0.0028   0.0066  -0.0006   0.0014  -0.0008   0.00   13.6
2025/08/02 00:10:45.000        23.5443         4.5705         0.5307   1  12   0.0026   0.0031   0.0064   0.0010   0.0007  -0.0002   0.00   13.6
2025/08/02 00:10:46.000        23.5440         4.5786         0.5164   1  12   0.0029   0.0030   0.0064   0.0008  -0.0004   0.0005   0.00   13.6
2025/08/02 00:10:47.000        23.5433         4.5829         0.5104   1  12   0.0027   0.0033   0.0064   0.0009   0.0003   0.0006   0.00   13.6
2025/08/02 00:10:48.000        23.5463         4.5866         0.5015   1  12   0.0029   0.0032   0.0063   0.0002  -0.0006   0.0009   0.00   13.6
2025/08/02 00:10:49.000        23.5431         4.5949         0.4848   1  12   0.0028   0.0032   0.0064   0.0007   0.0007   0.0010   0.00   13.6
2025/08/02 00:10:50.000        23.5438         4.5873         0.4871   1  12   0.0030   0.0029   0.0064   0.0011   0.0005   0.0009   0.00   13.6
2025/08/02 00:10:51.000        23.5418         4.5784         0.4857   1  12   0.0027   0.0030   0.0064   0.0010  -0.0007   0.0012   0.00   13.6
2025/08/02 00:10:52.000        23.5459         4.5776         0.4998   1  12   0.0028   0.0033   0.0064   0.0010  -0.0002  -0.0008   0.00   13.6
2025/08/02 00:10:53.000        23.5417         4.5855         0.4887   1  12   0.0027   0.0029   0.0063   0.0010  -0.0006   0.0011   0.00   13.7
2025/08/02 00:10:54.000        23.5422         4.6002         0.4999   1  12   0.0027   0.0032   0.0062   0.0008  -0.0010  -0.0007   0.00   13.6
2025/08/02 00:10:55.000        23.5390         4.6039         0.4918   1  12   0.0026   0.0030   0.0064   0.0006  -0.0007   0.0011   0.00   13.5
2025/08/02 00:10:56.000        23.5410         4.6073         0.5032   1  12   0.0029   0.0031   0.0064  -0.0003   0.0009  -0.0011   0.00   13.5
2025/08/02 00:10:57.000        23.5364         4.6031         0.4935   1  12   0.0028   0.0030   0.0062   0.0004  -0.0012   0.0009   0.00   13.4
2025/08/02 00:10:58.000        23.5408         4.5971         0.5010   1  12   0.0031   0.0032   0.0063   0.0007   0.0004  -0.0006   0.00   13.4
2025/08/02 00:10:59.000        23.5357         4.6012         0.4955   1  12   0.0027   0.0032   0.0064   0.0011  -0.0010   0.0010   0.00   13.4
2025/08/02 00:11:00.000        23.5404         4.6070         0.5150   1  12   0.0030   0.0030   0.0065   0.0009  -0.0004   0.0005   0.00   13.3
2025/08/02 00:11:01.000        23.5391         4.6188         0.5257   1  12   0.0026   0.0034   0.0065   0.0010  -0.0011   0.0007   0.00   13.2
2025/08/02 00:11:02.000        23.5357         4.6323         0.5300   1  11   0.0029   0.0030   0.0068   0.0010  -0.0013  -0.0004   0.00   13.2
2025/08/02 00:11:03.000        23.5281         4.6348         0.5346   1  11   0.0030   0.0027   0.0069   0.0011  -0.0012  -0.0002   0.00   13.1
2025/08/02 00:11:04.000        23.5374         4.6271         0.5185   1  11   0.0029   0.0034   0.0067   0.0012  -0.0015  -0.0008   0.00   13.0
2025/08/02 00:11:05.000        23.5342         4.6218         0.5259   1  11   0.0028   0.0030   0.0068   0.0011  -0.0013  -0.0007   0.00   13.0
2025/08/02 00:11:06.000        23.5395         4.6235         0.5235   1  11   0.0028   0.0032   0.0067   0.0009  -0.0016  -0.0006   0.00   13.0
2025/08/02 00:11:07.000        23.5290         4.6406         0.5175   1  11   0.0029   0.0033   0.0067   0.0011  -0.0015  -0.0011   0.00   13.0
2025/08/02 00:11:08.000        23.5317         4.6507         0.5307   1  11   0.0029   0.0028   0.0069   0.0006  -0.0014   0.0004   0.00   12.9
2025/08/02 00:11:09.000        23.5308         4.6693         0.5222   1  11   0.0027   0.0031   0.0068   0.0011  -0.0012  -0.0012   0.00   12.8
2025/08/02 00:11:10.000        23.5295         4.6742         0.5303   1  11   0.0031   0.0030   0.0069   0.0013  -0.0007  -0.0010   0.00   12.7
2025/08/02 00:11:11.000        23.5197         4.6675         0.5207   1  11   0.0026   0.0033   0.0068   0.0010  -0.0012  -0.0008   0.00   12.6
2025/08/02 00:11:12.000        23.5312         4.6560         0.5099   1  11   0.0029   0.0034   0.0068   0.0009  -0.0013  -0.0008   0.00   12.5
2025/08/02 00:11:13.000        23.5314         4.6532         0.4951   1  11   0.0029   0.0033   0.0067   0.0012  -0.0015   0.0006   0.00   12.4
2025/08/02 00:11:14.000        23.5307         4.6612         0.4858   1  11   0.0030   0.0030   0.0068   0.0009  -0.0011  -0.0008   0.00   12.3
2025/08/02 00:11:15.000        23.5284         4.6716         0.4879   1  11   0.0028   0.0032   0.0068   0.0011  -0.0008  -0.0012   0.00   12.1
2025/08/02 00:11:16.000        23.5265         4.6837         0.4797   1  11   0.0028   0.0029   0.0068   0.0007  -0.0014  -0.0004   0.00   12.0
2025/08/02 00:11:17.000        23.5251         4.6859         0.4924   1  11   0.0031   0.0030   0.0068   0.0013  -0.0010  -0.0010   0.00   12.0
2025/08/02 00:11:18.000        23.5300         4.6791         0.4786   1  11   0.0031   0.0030   0.0068   0.0012  -0.0008  -0.0009   0.00   12.0
2025/08/02 00:11:19.000        23.5249         4.6808         0.4799   1  11   0.0028   0.0033   0.0068   0.0002  -0.0013  -0.0007   0.00   12.0
2025/08/02 00:11:20.000        23.5298         4.6783         0.4939   1  11   0.0026   0.0029   0.0068   0.0006  -0.0011   0.0005   0.00   12.0
2025/08/02 00:11:21.000        23.5267         4.6821         0.5097   1  11   0.0027   0.0031   0.0068   0.0012  -0.0010  -0.0010   0.00   11.9
2025/08/02 00:11:22.000        23.5202         4.6883         0.5187   1  11   0.0026   0.0032   0.0068   0.0009  -0.0015  -0.0007   0.00   11.9
2025/08/02 00:11:23.000        23.5220         4.6926         0.5283   1  11   0.0029   0.0031   0.0068   0.0010  -0.0015  -0.0008   0.00   11.9
2025/08/02 00:11:24.000        23.5166         4.6948         0.5313   1  11   0.0030   0.0031   0.0068   0.0011  -0.0014  -0.0011   0.00   11.8
2025/08/02 00:11:25.000        23.5206         4.6958         0.5384   1  11   0.0027   0.0032   0.0068   0.0007  -0.0009  -0.0011   0.00   11.8
2025/08/02 00:11:26.000        23.5219         4.6946         0.5358   1  11   0.0029   0.0034   0.0067   0.0008  -0.0017  -0.0006   0.00   11.7
2025/08/02 00:11:27.000        23.5215         4.6971         0.5302   1  11   0.0025   0.0029   0.0068   0.0011  -0.0014  -0.0005   0.00   11.6
2025/08/02 00:11:28.000        23.5257         4.6901         0.5349   1  11   0.0030   0.0032   0.0067   0.0012  -0.0016   0.0007   0.00   11.5
2025/08/02 00:11:29.000        23.5238         4.6865         0.5383   1  11   0.0026   0.0030   0.0068   0.0012  -0.0013  -0.0012   0.00   11.4
2025/08/02 00:11:30.000        23.5298         4.6876         0.5401   1  11   0.0028   0.0031   0.0068   0.0011  -0.0013  -0.0014   0.00   11.3
2025/08/02 00:11:31.000        23.5283         4.6875         0.5309   1  11   0.0027   0.0032   0.0066   0.0010  -0.0013  -0.0012   0.00   11.3
2025/08/02 00:11:32.000        23.5149         4.6951         0.5091   1  11   0.0027   0.0029   0.0069   0.0008  -0.0010  -0.0008   0.00   11.2
2025/08/02 00:11:33.000        23.5224         4.6986         0.5101   1  11   0.0030   0.0032   0.0069   0.0009  -0.0003  -0.0014   0.00   11.1
2025/08/02 00:11:34.000        23.5244         4.6896         0.5055   1  11   0.0031   0.0029   0.0068   0.0011  -0.0012  -0.0013   0.00   11.0
2025/08/02 00:11:35.000        23.5218         4.6922         0.5004   1  11   0.0028   0.0030   0.0068   0.0007  -0.0014   0.0005   0.00   10.9
2025/08/02 00:11:36.000        23.5238         4.6845         0.4926   1  11   0.0027   0.0033   0.0067   0.0012  -0.0015  -0.0004   0.00   10.8
2025/08/02 00:11:37.000        23.5250         4.6852         0.4911   1  11   0.0027   0.0033   0.0068   0.0010  -0.0014  -0.0001   0.00   10.7
2025/08/02 00:11:38.000        23.5266         4.6805         0.4858   1  11   0.0028   0.0033   0.0067   0.0012  -0.0016   0.0008   0.00   10.6
2025/08/02 00:11:39.000        23.5264         4.6804         0.5064   1  11   0.0027   0.0033   0.0066   0.0013  -0.0016  -0.0006   0.00   10.5
2025/08/02 00:11:40.000        23.5233         4.6796         0.5102   1  11   0.0032   0.0034   0.0068   0.0012  -0.0014  -0.0006   0.00   10.5
2025/08/02 00:11:41.000        23.5244         4.6794         0.5247   1  11   0.0028   0.0029   0.0069   0.0010  -0.0012   0.0005   0.00   10.4
2025/08/02 00:11:42.000        23.5267         4.6831         0.5272   1  11   0.0027   0.0034   0.0068   0.0005  -0.0016  -0.0007   0.00   10.3
2025/08/02 00:11:43.000        23.5218         4.6792         0.5349   1  11   0.0027   0.0032   0.0068   0.0011  -0.0013  -0.0008   0.00   10.3
2025/08/02 00:11:44.000        23.5245         4.6781         0.5136   1  11   0.0028   0.0030   0.0068   0.0012  -0.0012  -0.0013   0.00   10.2
2025/08/02 00:11:45.000        23.5289         4.6796         0.5201   1  11   0.0026   0.0033   0.0067   0.0013  -0.0016  -0.0010   0.00   10.2
2025/08/02 00:11:46.000        23.5216         4.6714         0.5047   1  11   0.0027   0.0033   0.0067   0.0010  -0.0014  -0.0011   0.00   10.1
2025/08/02 00:11:47.000        23.5294         4.6721         0.5011   1  11   0.0030   0.0028   0.0069   0.0012  -0.0010  -0.0008   0.00   10.0
2025/08/02 00:11:48.000        23.5302         4.6699         0.5114   1  11   0.0026   0.0032   0.0068   0.0012  -0.0012  -0.0013   0.00   10.0
2025/08/02 00:11:49.000        23.5307         4.6633         0.5091   1  11   0.0026   0.0028   0.0068   0.0010  -0.0013  -0.0010   0.00   10.0
2025/08/02 00:11:50.000        23.5298         4.6624         0.5157   1  11   0.0026   0.0029   0.0068   0.0007  -0.0011  -0.0011   0.00   10.0
2025/08/02 00:11:51.000        23.5269         4.6630         0.5141   1  11   0.0028   0.0035   0.0068   0.0008  -0.0013  -0.0006   0.00    9.9
2025/08/02 00:11:52.000        23.5273         4.6685         0.5047   1  11   0.0027   0.0030   0.0069   0.0013  -0.0012   0.0005   0.00    9.9
2025/08/02 00:11:53.000        23.5276         4.6721         0.5071   1  11   0.0028   0.0031   0.0067   0.0010  -0.0012  -0.0008   0.00    9.9
2025/08/02 00:11:54.000        23.5219         4.6650         0.5011   1  11   0.0028   0.0032   0.0068   0.0009  -0.0014  -0.0011   0.00    9.8
2025/08/02 00:11:55.000        23.5292         4.6623         0.5027   1  11   0.0028   0.0031   0.0068   0.0012  -0.0010   0.0002   0.00    9.8
2025/08/02 00:11:56.000        23.5288         4.6491         0.5340   1  11   0.0029   0.0032   0.0067   0.0012  -0.0014  -0.0010   0.00    9.8
2025/08/02 00:11:57.000        23.5324         4.6481         0.5232   1  11   0.0029   0.0030   0.0068   0.0008  -0.0011  -0.0005   0.00    9.7
2025/08/02 00:11:58.000        23.5353         4.6504         0.5310   1  11   0.0029   0.0032   0.0067   0.0013  -0.0017   0.0006   0.00    9.6
2025/08/02 00:11:59.000        23.5314         4.6592         0.5364   1  11   0.0027   0.0033   0.0068   0.0010  -0.0012   0.0004   0.00    9.6
2025/08/02 00:12:00.000        23.5313         4.6640         0.5335   1  11   0.0028   0.0032   0.0068   0.0010  -0.0016   0.0002   0.00    9.5
2025/08/02 00:12:01.000        23.5340         4.6618         0.5323   1  11   0.0030   0.0033   0.0067   0.0012  -0.0013  -0.0012   0.00    9.5
2025/08/02 00:12:02.000        23.5315         4.6529         0.5191   1  11   0.0029   0.0032   0.0068   0.0006  -0.0011  -0.0008   0.00    9.4
2025/08/02 00:12:03.000        23.5361         4.6425         0.5116   1  11   0.0027   0.0032   0.0068   0.0005  -0.0012  -0.0008   0.00    9.3
2025/08/02 00:12:04.000        23.5330         4.6341         0.5180   1  11   0.0026   0.0031   0.0068   0.0012  -0.0012  -0.0016   0.00    9.3
2025/08/02 00:12:05.000        23.5342         4.6412         0.5155   1  11   0.0030   0.0029   0.0068   0.0011  -0.0011  -0.0011   0.00    9.3
2025/08/02 00:12:06.000        23.5408         4.6394         0.5100   1  11   0.0030   0.0031   0.0068   0.0006  -0.0011  -0.0005   0.00    9.3
2025/08/02 00:12:07.000        23.5398         4.6401         0.5100   1  11   0.0029   0.0032   0.0068   0.0010  -0.0012  -0.0003   0.00    9.2
2025/08/02 00:12:08.000        23.5390         4.6437         0.5110   1  11   0.0029   0.0031   0.0068   0.0010  -0.0015  -0.0002   0.00    9.2
2025/08/02 00:12:09.000        23.5381         4.6336         0.5044   1  11   0.0029   0.0031   0.0068   0.0009  -0.0013  -0.0004   0.00    9.2
2025/08/02 00:12:10.000        23.5345         4.6283         0.5002   1  11   0.0029   0.0029   0.0069   0.0009  -0.0011  -0.0006   0.00    9.2
2025/08/02 00:12:11.000        23.5395         4.6181         0.4848   1  11   0.0026   0.0034   0.0068   0.0012  -0.0014  -0.0011   0.00    9.2
2025/08/02 00:12:12.000        23.5392         4.6158         0.5119   1  11   0.0030   0.0031   0.0067   0.0012  -0.0014  -0.0011   0.00    9.2
2025/08/02 00:12:13.000        23.5355         4.6208         0.5291   1  11   0.0029   0.0031   0.0068   0.0008  -0.0010  -0.0009   0.00    9.2
2025/08/02 00:12:14.000        23.5369         4.6226         0.5093   1  11   0.0027   0.0033   0.0068   0.0006  -0.0012  -0.0008   0.00    9.2
2025/08/02 00:12:15.000        23.5352         4.6271         0.5164   1  11   0.0027   0.0032   0.0068   0.0009  -0.0012  -0.0003   0.00    9.2
2025/08/02 00:12:16.000        23.5317         4.6293         0.5147   1  11   0.0027   0.0033   0.0067   0.0013  -0.0014  -0.0009   0.00    9.2
2025/08/02 00:12:17.000        23.5391         4.6173         0.5078   1  11   0.0033   0.0029   0.0068   0.0014  -0.0012  -0.0009   0.00    9.2
2025/08/02 00:12:18.000        23.5345         4.6108         0.5144   1  11   0.0031   0.0031   0.0067   0.0012  -0.0013  -0.0008   0.00    9.2
2025/08/02 00:12:19.000        23.5407         4.5986         0.5125   1  11   0.0026   0.0031   0.0069   0.0009  -0.0008  -0.0004   0.00    9.2
2025/08/02 00:12:20.000        23.5462         4.5949         0.5139   1  11   0.0029   0.0028   0.0069   0.0004  -0.0013   0.0007   0.00    9.2
2025/08/02 00:12:21.000        23.5422         4.6012         0.5111   1  11   0.0030   0.0033   0.0067   0.0012  -0.0015  -0.0004   0.00    9.1
2025/08/02 00:12:22.000        23.5437         4.6102         0.5165   1  11   0.0030   0.0029   0.0068   0.0013  -0.0012  -0.0012   0.00    9.1
2025/08/02 00:12:23.000        23.5402         4.6149         0.5105   1  11   0.0029   0.0029   0.0068   0.0010  -0.0010  -0.0014   0.00    9.1
2025/08/02 00:12:24.000        23.5397         4.6098         0.5204   1  11   0.0028   0.0035   0.0066   0.0012  -0.0018   0.0004   0.00    9.1
2025/08/02 00:12:25.000        23.5402         4.6035         0.5242   1  11   0.0029   0.0032   0.0067   0.0011  -0.0014  -0.0011   0.00    9.1
2025/08/02 00:12:26.000        23.5421         4.5869         0.5200   1  11   0.0028   0.0034   0.0067   0.0012  -0.0018  -0.0005   0.00    9.1
2025/08/02 00:12:27.000        23.5466         4.5790         0.5183   1  11   0.0028   0.0030   0.0067   0.0009  -0.0013  -0.0003   0.00    9.0
2025/08/02 00:12:28.000        23.5469         4.5814         0.5249   1  11   0.0030   0.0032   0.0067   0.0014  -0.0014  -0.0010   0.00    9.0
2025/08/02 00:12:29.000        23.5447         4.5946         0.5360   1  11   0.0026   0.0033   0.0066   0.0010  -0.0018  -0.0004   0.00    9.0
2025/08/02 00:12:30.000        23.5422         4.6030         0.5260   1  11   0.0031   0.0028   0.0068   0.0009  -0.0013  -0.0008   0.00    9.0
2025/08/02 00:12:31.000        23.5446         4.6045         0.5418   1  11   0.0029   0.0030   0.0069   0.0007  -0.0004  -0.0013   0.00    9.0
2025/08/02 00:12:32.000        23.5524         4.5907         0.5234   1  11   0.0032   0.0031   0.0067   0.0011  -0.0013  -0.0008   0.00    9.0
2025/08/02 00:12:33.000        23.5460         4.5724         0.5186   1  11   0.0029   0.0032   0.0067   0.0010  -0.0012  -0.0015   0.00    9.0
2025/08/02 00:12:34.000        23.5515         4.5627         0.5070   1  11   0.0027   0.0029   0.0068   0.0009  -0.0009  -0.0012   0.00    8.9
2025/08/02 00:12:35.000        23.5469         4.5657         0.5073   1  11   0.0026   0.0031   0.0068   0.0011  -0.0014   0.0002   0.00    8.9
2025/08/02 00:12:36.000        23.5470         4.5766         0.5055   1  11   0.0026   0.0028   0.0069   0.0007  -0.0010  -0.0012   0.00    9.0
2025/08/02 00:12:37.000        23.5484         4.5750         0.4885   1  11   0.0031   0.0030   0.0067   0.0007  -0.0013  -0.0014   0.00    9.0
2025/08/02 00:12:38.000        23.5464         4.5730         0.4811   1  11   0.0027   0.0030   0.0069   0.0007  -0.0006  -0.0004   0.00    9.0
2025/08/02 00:12:39.000        23.5505         4.5700         0.4835   1  11   0.0030   0.0030   0.0068   0.0011  -0.0014  -0.0010   0.00    8.9
2025/08/02 00:12:40.000        23.5522         4.5674         0.4963   1  11   0.0026   0.0031   0.0067   0.0005  -0.0016  -0.0005   0.00    8.9
2025/08/02 00:12:41.000        23.5500         4.5612         0.5117   1  11   0.0029   0.0029   0.0068   0.0011  -0.0011  -0.0010   0.00    9.0
2025/08/02 00:12:42.000        23.5506         4.5562         0.5014   1  11   0.0030   0.0031   0.0068   0.0010  -0.0012  -0.0005   0.00    8.9
2025/08/02 00:12:43.000        23.5541         4.5578         0.5004   1  11   0.0028   0.0031   0.0068   0.0007  -0.0012  -0.0011   0.00    8.9
2025/08/02 00:12:44.000        23.5442         4.5606         0.5095   1  11   0.0028   0.0032   0.0068   0.0009  -0.0014  -0.0007   0.00    8.9
2025/08/02 00:12:45.000        23.5469         4.5660         0.5073   1  11   0.0031   0.0031   0.0068   0.0009  -0.0012  -0.0007   0.00    8.9
2025/08/02 00:12:46.000        23.5460         4.5708         0.5153   1  11   0.0031   0.0031   0.0068   0.0009  -0.0010  -0.0003   0.00    8.9
2025/08/02 00:12:47.000        23.5469         4.5644         0.5176   1  11   0.0028   0.0031   0.0068   0.0005  -0.0009  -0.0011   0.00    8.9
2025/08/02 00:12:48.000        23.5443         4.5617         0.5148   1  11   0.0030   0.0030   0.0068   0.0005  -0.0010  -0.0013   0.00    8.9
2025/08/02 00:12:49.000        23.5491         4.5565         0.5228   1  11   0.0029   0.0030   0.0069   0.0006   0.0002  -0.0009   0.00    8.9
2025/08/02 00:12:50.000        23.5484         4.5542         0.5215   1  11   0.0031   0.0027   0.0068   0.0012  -0.0013  -0.0009   0.00    8.9
2025/08/02 00:12:51.000        23.5450         4.5596         0.5083   1  11   0.0029   0.0028   0.0068   0.0007  -0.0012  -0.0011   0.00    8.9
2025/08/02 00:12:52.000        23.5510         4.5573         0.5048   1  11   0.0026   0.0032   0.0067   0.0013  -0.0013  -0.0008   0.00    9.0
2025/08/02 00:12:53.000        23.5490         4.5574         0.5006   1  11   0.0031   0.0029   0.0068   0.0008  -0.0012  -0.0009   0.00    9.0
2025/08/02 00:12:54.000        23.5483         4.5594         0.5153   1  11   0.0026   0.0032   0.0068   0.0006  -0.0012  -0.0003   0.00    9.0
2025/08/02 00:12:55.000        23.5480         4.5544         0.5086   1  11   0.0029   0.0029   0.0068   0.0005  -0.0011  -0.0009   0.00    9.1
2025/08/02 00:12:56.000        23.5488         4.5644         0.5322   1  11   0.0030   0.0033   0.0067   0.0010  -0.0015   0.0004   0.00    9.0
2025/08/02 00:12:57.000        23.5458         4.5749         0.5343   1  11   0.0028   0.0032   0.0067   0.0012  -0.0016  -0.0011   0.00    9.1
2025/08/02 00:12:58.000        23.5417         4.5808         0.5312   1  11   0.0030   0.0030   0.0068   0.0014  -0.0010  -0.0010   0.00    9.1
2025/08/02 00:12:59.000        23.5389         4.5811         0.5197   1  11   0.0028   0.0034   0.0068   0.0007  -0.0007  -0.0009   0.00    9.1
2025/08/02 00:13:00.000        23.5514         4.5720         0.5114   1  11   0.0028   0.0031   0.0068   0.0009  -0.0015  -0.0004   0.00    9.1
2025/08/02 00:13:01.000        23.5456         4.5634         0.5314   1  11   0.0031   0.0031   0.0069   0.0006  -0.0012  -0.0003   0.00    9.1
2025/08/02 00:13:02.000        23.5519         4.5661         0.5264   1  11   0.0029   0.0031   0.0067   0.0011  -0.0012  -0.0011   0.00    9.1
2025/08/02 00:13:03.000        23.5461         4.5760         0.5372   1  11   0.0028   0.0034   0.0067   0.0012  -0.0015  -0.0007   0.00    9.1
2025/08/02 00:13:04.000        23.5422         4.5919         0.5223   1  11   0.0030   0.0032   0.0068   0.0008  -0.0013   0.0001   0.00    9.1
2025/08/02 00:13:05.000        23.5433         4.5982         0.5072   1  11   0.0027   0.0032   0.0069   0.0008  -0.0008  -0.0006   0.00    9.0
2025/08/02 00:13:06.000        23.5390         4.6025         0.4889   1  11   0.0030   0.0031   0.0068   0.0008  -0.0011  -0.0007   0.00    9.0
2025/08/02 00:13:07.000        23.5478         4.5922         0.4903   1  11   0.0029   0.0031   0.0068   0.0007  -0.0015  -0.0007   0.00    9.0
2025/08/02 00:13:08.000        23.5459         4.5874         0.4746   1  11   0.0029   0.0028   0.0069   0.0010  -0.0012   0.0005   0.00    9.0
2025/08/02 00:13:09.000        23.5433         4.5863         0.4803   1  11   0.0028   0.0030   0.0068   0.0009  -0.0011  -0.0002   0.00    8.9
2025/08/02 00:13:10.000        23.5421         4.6011         0.5033   1  11   0.0029   0.0032   0.0068   0.0008  -0.0012   0.0004   0.00    8.9
2025/08/02 00:13:11.000        23.5378         4.6262         0.5139   1  11   0.0028   0.0032   0.0068   0.0010  -0.0010  -0.0009   0.00    8.9
2025/08/02 00:13:12.000        23.5313         4.6389         0.5141   1  11   0.0030   0.0030   0.0068   0.0007  -0.0013  -0.0008   0.00    8.9
2025/08/02 00:13:13.000        23.5292         4.6384         0.5156   1  11   0.0030   0.0032   0.0068   0.0012  -0.0013  -0.0012   0.00    8.9
2025/08/02 00:13:14.000        23.5338         4.6349         0.5089   1  11   0.0028   0.0029   0.0069   0.0009  -0.0008  -0.0006   0.00    8.9
2025/08/02 00:13:15.000        23.5307         4.6260         0.5158   1  11   0.0031   0.0032   0.0068   0.0011  -0.0013  -0.0007   0.00    8.9
2025/08/02 00:13:16.000        23.5354         4.6197         0.5153   1  11   0.0028   0.0031   0.0067   0.0009  -0.0014  -0.0011   0.00    8.9
2025/08/02 00:13:17.000        23.5352         4.6348         0.5275   1  11   0.0030   0.0029   0.0068   0.0011  -0.0014  -0.0011   0.00    8.9
2025/08/02 00:13:18.000        23.5254         4.6471         0.5187   1  11   0.0028   0.0033   0.0068   0.0009  -0.0013   0.0003   0.00    8.9
2025/08/02 00:13:19.000        23.5265         4.6602         0.5392   1  11   0.0028   0.0032   0.0067   0.0010  -0.0013  -0.0004   0.00    8.9
2025/08/02 00:13:20.000        23.5238         4.6646         0.5263   1  11   0.0029   0.0034   0.0068   0.0006  -0.0009  -0.0007   0.00    8.9
2025/08/02 00:13:21.000        23.5290         4.6576         0.5225   1  11   0.0027   0.0030   0.0068   0.0013  -0.0014  -0.0003   0.00    8.9
2025/08/02 00:13:22.000        23.5236         4.6556         0.5225   1  11   0.0028   0.0033   0.0068   0.0011  -0.0015   0.0006   0.00    8.9
2025/08/02 00:13:23.000        23.5313         4.6516         0.5159   1  11   0.0029   0.0031   0.0069   0.0008  -0.0011  -0.0004   0.00    8.9
2025/08/02 00:13:24.000        23.5249         4.6583         0.4979   1  11   0.0029   0.0032   0.0067   0.0013  -0.0015  -0.0003   0.00    8.9
2025/08/02 00:13:25.000        23.5296         4.6670         0.4968   1  11   0.0028   0.0029   0.0068   0.0007  -0.0013  -0.0011   0.00    8.9
2025/08/02 00:13:26.000        23.5253         4.6735         0.4898   1  11   0.0029   0.0033   0.0067   0.0007  -0.0012  -0.0010   0.00    8.9
2025/08/02 00:13:27.000        23.5217         4.6812         0.5146   1  11   0.0029   0.0031   0.0068   0.0004  -0.0012  -0.0008   0.00    8.9
2025/08/02 00:13:28.000        23.5217         4.6777         0.5075   1  11   0.0027   0.0028   0.0069   0.0008  -0.0008  -0.0001   0.00    9.0
2025/08/02 00:13:29.000        23.5268         4.6740         0.5237   1  11   0.0027   0.0031   0.0067   0.0012  -0.0015  -0.0007   0.00    9.0
2025/08/02 00:13:30.000        23.5214         4.6648         0.5235   1  11   0.0028   0.0032   0.0069   0.0010  -0.0007  -0.0007   0.00    9.0
2025/08/02 00:13:31.000        23.5302         4.6700         0.5291   1  11   0.0029   0.0035   0.0066   0.0013  -0.0016   0.0009   0.00    9.0
2025/08/02 00:13:32.000        23.5267         4.6690         0.5144   1  11   0.0029   0.0029   0.0068   0.0012  -0.0010  -0.0005   0.00    8.9
2025/08/02 00:13:33.000        23.5218         4.6813         0.5108   1  11   0.0028   0.0031   0.0067   0.0010  -0.0010  -0.0012   0.00    9.0
2025/08/02 00:13:34.000        23.5237         4.6826         0.4979   1  11   0.0025   0.0032   0.0067   0.0006  -0.0010  -0.0012   0.00    9.0
2025/08/02 00:13:35.000        23.5235         4.6778         0.4905   1  11   0.0027   0.0031   0.0068   0.0010  -0.0013   0.0009   0.00    9.0
2025/08/02 00:13:36.000        23.5314         4.6714         0.4938   1  11   0.0029   0.0030   0.0068   0.0007  -0.0010  -0.0014   0.00    9.0
2025/08/02 00:13:37.000        23.5290         4.6684         0.4917   1  11   0.0028   0.0031   0.0067   0.0009  -0.0010  -0.0012   0.00    9.0
2025/08/02 00:13:38.000        23.5268         4.6677         0.4979   1  11   0.0028   0.0030   0.0069   0.0007  -0.0009  -0.0013   0.00    9.0
2025/08/02 00:13:39.000        23.5240         4.6745         0.5004   1  11   0.0026   0.0033   0.0067   0.0010  -0.0014  -0.0011   0.00    9.0
2025/08/02 00:13:40.000        23.5217         4.6791         0.5102   1  11   0.0029   0.0025   0.0069   0.0006  -0.0008  -0.0011   0.00    9.0
2025/08/02 00:13:41.000        23.5291         4.6819         0.4931   1  11   0.0027   0.0032   0.0068   0.0008  -0.0013  -0.0010   0.00    9.0
2025/08/02 00:13:42.000        23.5221         4.6777         0.4871   1  11   0.0028   0.0031   0.0068   0.0008  -0.0012   0.0003   0.00    9.0
2025/08/02 00:13:43.000        23.5238         4.6784         0.4863   1  11   0.0030   0.0032   0.0066   0.0012  -0.0018   0.0008   0.00    9.0
2025/08/02 00:13:44.000        23.5223         4.6830         0.5076   1  11   0.0030   0.0027   0.0068   0.0011  -0.0009  -0.0011   0.00    9.0
2025/08/02 00:13:45.000        23.5221         4.6754         0.5370   1  11   0.0028   0.0031   0.0067   0.0006  -0.0010  -0.0013   0.00    9.1
2025/08/02 00:13:46.000        23.5204         4.6795         0.5397   1  11   0.0029   0.0031   0.0068  -0.0006  -0.0011   0.0004   0.00    9.1
2025/08/02 00:13:47.000        23.5213         4.6729         0.5412   1  11   0.0028   0.0030   0.0068   0.0006  -0.0016   0.0007   0.00    9.1
2025/08/02 00:13:48.000        23.5185         4.6829         0.5361   1  11   0.0030   0.0031   0.0068   0.0009  -0.0011  -0.0009   0.00    9.1
2025/08/02 00:13:49.000        23.5191         4.6836         0.5291   1  11   0.0028   0.0032   0.0067   0.0011  -0.0014  -0.0001   0.00    9.2
2025/08/02 00:13:50.000        23.5183         4.6846         0.5227   1  11   0.0029   0.0029   0.0068   0.0008  -0.0010  -0.0014   0.00    9.2
2025/08/02 00:13:51.000        23.5185         4.6860         0.5266   1  11   0.0029   0.0032   0.0069   0.0009  -0.0011   0.0005   0.00    9.2
2025/08/02 00:13:52.000        23.5213         4.6816         0.5142   1  11   0.0027   0.0032   0.0068   0.0006  -0.0011   0.0005   0.00    9.2
2025/08/02 00:13:53.000        23.5234         4.6839         0.5182   1  11   0.0026   0.0030   0.0068   0.0011  -0.0010  -0.0007   0.00    9.2
2025/08/02 00:13:54.000        23.5261         4.6844         0.5009   1  11   0.0028   0.0029   0.0068   0.0012  -0.0008  -0.0006   0.00    9.2
2025/08/02 00:13:55.000        23.5230         4.6916         0.5040   1  11   0.0027   0.0034   0.0066   0.0005  -0.0017  -0.0008   0.00    9.2
2025/08/02 00:13:56.000        23.5165         4.6911         0.5063   1  11   0.0031   0.0028   0.0069   0.0009  -0.0006  -0.0009   0.00    9.2
2025/08/02 00:13:57.000        23.5199         4.6917         0.5042   1  11   0.0029   0.0031   0.0068   0.0008  -0.0009  -0.0008   0.00    9.2
2025/08/02 00:13:58.000        23.5235         4.6925         0.4990   1  11   0.0026   0.0034   0.0067   0.0003  -0.0014  -0.0009   0.00    9.2
2025/08/02 00:13:59.000        23.5249         4.6906         0.5007   1  11   0.0026   0.0033   0.0067   0.0008  -0.0016  -0.0007   0.00    9.2
2025/08/02 00:14:00.000        23.5240         4.6911         0.5030   1  11   0.0028   0.0031   0.0068   0.0004  -0.0011  -0.0005   0.00    9.2
2025/08/02 00:14:01.000        23.5242         4.6916         0.4989   1  11   0.0028   0.0029   0.0068   0.0010  -0.0011  -0.0008   0.00    9.2
2025/08/02 00:14:02.000        23.5183         4.6826         0.4899   1  11   0.0025   0.0032   0.0067   0.0008  -0.0014  -0.0014   0.00    9.2
2025/08/02 00:14:03.000        23.5207         4.6837         0.5061   1  11   0.0030   0.0030   0.0068   0.0010  -0.0014  -0.0007   0.00    9.2
2025/08/02 00:14:04.000        23.5244         4.6781         0.4972   1  11   0.0029   0.0030   0.0067   0.0011  -0.0012  -0.0010   0.00    9.2
2025/08/02 00:14:05.000        23.5271         4.6818         0.5143   1  11   0.0029   0.0029   0.0068   0.0008   0.0005  -0.0013   0.00    9.2
2025/08/02 00:14:06.000        23.5213         4.6893         0.5244   1  11   0.0026   0.0031   0.0068   0.0006  -0.0012   0.0006   0.00    9.2
2025/08/02 00:14:07.000        23.5172         4.6896         0.5095   1  11   0.0027   0.0030   0.0068   0.0008  -0.0009  -0.0013   0.00    9.3
2025/08/02 00:14:08.000        23.5182         4.6840         0.5119   1  11   0.0027   0.0031   0.0067   0.0007  -0.0014  -0.0005   0.00    9.3
2025/08/02 00:14:09.000        23.5246         4.6829         0.4924   1  11   0.0030   0.0032   0.0067   0.0008  -0.0014  -0.0005   0.00    9.3
2025/08/02 00:14:10.000        23.5180         4.6816         0.5069   1  11   0.0029   0.0032   0.0068   0.0007  -0.0011  -0.0009   0.00    9.3
2025/08/02 00:14:11.000        23.5223         4.6820         0.5053   1  11   0.0032   0.0033   0.0067   0.0011  -0.0013  -0.0004   0.00    9.4
2025/08/02 00:14:12.000        23.5217         4.6899         0.5003   1  11   0.0027   0.0029   0.0068   0.0007  -0.0012  -0.0011   0.00    9.4
2025/08/02 00:14:13.000        23.5183         4.6903         0.5089   1  11   0.0029   0.0031   0.0069   0.0007  -0.0010   0.0009   0.00    9.4
2025/08/02 00:14:14.000        23.5119         4.7002         0.5162   1  11   0.0030   0.0033   0.0067   0.0009  -0.0010  -0.0009   0.00    9.5
2025/08/02 00:14:15.000        23.5233         4.6909         0.5006   1  11   0.0027   0.0034   0.0067   0.0010  -0.0013  -0.0008   0.00    9.5
2025/08/02 00:14:16.000        23.5227         4.6911         0.4933   1  11   0.0029   0.0029   0.0068   0.0013  -0.0012  -0.0013   0.00    9.5
2025/08/02 00:14:17.000        23.5219         4.6872         0.4951   1  11   0.0027   0.0031   0.0068   0.0008  -0.0012  -0.0008   0.00    9.5
2025/08/02 00:14:18.000        23.5249         4.6772         0.4944   1  11   0.0029   0.0030   0.0068   0.0003  -0.0009  -0.0008   0.00    9.5
2025/08/02 00:14:19.000        23.5311         4.6797         0.4980   1  11   0.0027   0.0032   0.0068   0.0010  -0.0014   0.0009   0.00    9.5
2025/08/02 00:14:20.000        23.5235         4.6865         0.5176   1  11   0.0027   0.0028   0.0068   0.0007  -0.0011   0.0009   0.00    9.5
2025/08/02 00:14:21.000        23.5230         4.6914         0.5195   1  11   0.0030   0.0033   0.0068   0.0007  -0.0012  -0.0009   0.00    9.5
2025/08/02 00:14:22.000        23.5216         4.6960         0.5193   1  11   0.0028   0.0034   0.0067   0.0005  -0.0013  -0.0011   0.00    9.5
2025/08/02 00:14:23.000        23.5128         4.6972         0.5137   1  11   0.0027   0.0030   0.0068   0.0012  -0.0012  -0.0008   0.00    9.5
2025/08/02 00:14:24.000        23.5196         4.6895         0.4935   1  11   0.0029   0.0030   0.0068   0.0009  -0.0011  -0.0009   0.00    9.6
2025/08/02 00:14:25.000        23.5193         4.6783         0.4877   1  11   0.0029   0.0033   0.0067   0.0011  -0.0015   0.0004   0.00    9.6
2025/08/02 00:14:26.000        23.5196         4.6799         0.4917   1  11   0.0028   0.0030   0.0067   0.0007  -0.0013  -0.0002   0.00    9.6
2025/08/02 00:14:27.000        23.5221         4.6807         0.5024   1  11   0.0028   0.0033   0.0067   0.0007  -0.0012  -0.0005   0.00    9.6
2025/08/02 00:14:28.000        23.5219         4.6914         0.5177   1  11   0.0027   0.0029   0.0067   0.0012  -0.0012  -0.0013   0.00    9.6
2025/08/02 00:14:29.000        23.5200         4.6931         0.5103   1  11   0.0027   0.0032   0.0068   0.0004  -0.0012  -0.0005   0.00    9.6
2025/08/02 00:14:30.000        23.5224         4.6980         0.5138   1  11   0.0028   0.0030   0.0068   0.0002  -0.0009  -0.0007   0.00    9.6
2025/08/02 00:14:31.000        23.5167         4.6948         0.5061   1  11   0.0029   0.0033   0.0068   0.0002  -0.0013  -0.0007   0.00    9.6
2025/08/02 00:14:32.000        23.5208         4.6898         0.4956   1  11   0.0030   0.0029   0.0068   0.0010  -0.0006  -0.0010   0.00    9.7
2025/08/02 00:14:33.000        23.5162         4.6842         0.4891   1  11   0.0030   0.0031   0.0068   0.0005  -0.0013  -0.0005   0.00    9.7
2025/08/02 00:14:34.000        23.5209         4.6825         0.4803   1  11   0.0029   0.0031   0.0068   0.0008  -0.0009  -0.0005   0.00    9.7
2025/08/02 00:14:35.000        23.5200         4.6798         0.4816   1  11   0.0028   0.0031   0.0067   0.0008  -0.0014  -0.0010   0.00    9.7
2025/08/02 00:14:36.000        23.5236         4.6861         0.4928   1  11   0.0029   0.0029   0.0067   0.0009  -0.0015  -0.0004   0.00    9.7
2025/08/02 00:14:37.000        23.5203         4.6860         0.5004   1  11   0.0027   0.0030   0.0068   0.0008  -0.0010  -0.0007   0.00    9.7
2025/08/02 00:14:38.000        23.5149         4.6837         0.5081   1  11   0.0028   0.0033   0.0067   0.0007  -0.0016  -0.0004   0.00    9.7
2025/08/02 00:14:39.000        23.5159         4.6825         0.5066   1  11   0.0030   0.0030   0.0068   0.0007  -0.0010   0.0006   0.00    9.7
