% program   : RTKLIB ver.EX 2.5.0
% inp file  : C:\1-Data\01-Projet\ProjetPY\Thialf\DC-250802\GNSS\Stbd214A.25O
% inp file  : C:\1-Data\01-Projet\ProjetPY\Thialf\DC-250802\GNSS\Prt_214A.25O
% inp file  : C:\1-Data\01-Projet\ProjetPY\Thialf\DC-250802\GNSS\Stbd214A.25N
% inp file  : C:\1-Data\01-Projet\ProjetPY\Thialf\DC-250802\GNSS\COD0OPSULT_20252131800_02D_05M_ORB.SP3
% inp file  : C:\1-Data\01-Projet\ProjetPY\Thialf\DC-250802\GNSS\ESA0OPSFIN_20252100000_01D_30S_CLK.CLK
% inp file  : C:\1-Data\01-Projet\ProjetPY\Thialf\DC-250802\GNSS\Stbd214A.25G
% obs start : 2025/08/02 00:07:36.0 UTC (week2377 518874.0s)
% obs end   : 2025/08/02 06:09:27.0 UTC (week2377 540585.0s)
% pos mode  : Kinematic
% freqs     : L1+L2/E5b+L5+L6
% solution  : Combined-Phase Reset
% elev mask : 13.0 deg
% dynamics  : off
% tidecorr  :
% ionos opt : Broadcast
% tropo opt : OFF
% ephemeris : Precise
% navi sys  : GPS GLONASS Galileo QZSS
% amb res   : Fix and Hold
% amb glo   : Fix and Hold
% val thres : 3.0
% antenna1  :                       ( 0.0000  0.0000  0.0000)
% antenna2  :                       ( 0.0000  0.0000  0.0000)
% ref pos   :  40.321125120  -73.251730626     7.5671
%
% (e/n/u-baseline=WGS84,Q=1:fix,2:float,3:sbas,4:dgps,5:single,6:ppp,ns=# of satellites)
%  UTC                   e-baseline(m)  n-baseline(m)  u-baseline(m)   Q  ns   sde(m)   sdn(m)   sdu(m)  sden(m)  sdnu(m)  sdue(m) age(s)  ratio
2025/08/02 00:07:36.000        17.9685       -21.5950         0.8035   1  12   0.0260   0.0306   0.0670   0.0153   0.0278   0.0196  28.00   70.4
2025/08/02 00:09:27.000        17.9390       -21.4022         0.3147   1  12   0.0059   0.0064   0.0152  -0.0017   0.0051  -0.0040  -3.00   62.4
2025/08/02 00:09:28.000        17.9141       -21.3877         0.3333   1  12   0.0058   0.0064   0.0164  -0.0026   0.0060  -0.0048  -2.00   62.5
2025/08/02 00:09:29.000        17.9208       -21.3689         0.3292   1  12   0.0068   0.0073   0.0204  -0.0039   0.0083  -0.0068  -1.00   62.5
2025/08/02 00:09:30.000        17.9509       -21.3693         0.2729   1  12   0.0040   0.0044   0.0089   0.0013  -0.0015   0.0017   0.00   11.5
2025/08/02 00:09:31.000        17.9465       -21.3737         0.2693   1  12   0.0041   0.0046   0.0092   0.0004   0.0013  -0.0007   0.00   11.5
2025/08/02 00:09:32.000        17.9417       -21.3736         0.2622   1  12   0.0042   0.0042   0.0093  -0.0012   0.0020   0.0009   0.00   11.4
2025/08/02 00:09:33.000        17.9381       -21.3860         0.2635   1  12   0.0041   0.0045   0.0091  -0.0014   0.0011   0.0011   0.00   11.3
2025/08/02 00:09:34.000        17.9383       -21.3802         0.2677   1  12   0.0040   0.0045   0.0092  -0.0010  -0.0007   0.0008   0.00   11.3
2025/08/02 00:09:35.000        17.9307       -21.3797         0.2832   1  12   0.0041   0.0042   0.0091   0.0014   0.0015  -0.0016   0.00   11.3
2025/08/02 00:09:36.000        17.9365       -21.3783         0.2950   1  12   0.0038   0.0041   0.0089   0.0004   0.0011  -0.0010   0.00   11.2
2025/08/02 00:09:37.000        17.9395       -21.3706         0.3080   1  12   0.0039   0.0040   0.0091   0.0015   0.0010  -0.0006   0.00   11.2
2025/08/02 00:09:38.000        17.9506       -21.3711         0.2966   1  12   0.0042   0.0043   0.0092  -0.0012   0.0016   0.0006   0.00   11.1
2025/08/02 00:09:39.000        17.9431       -21.3729         0.3081   1  12   0.0042   0.0044   0.0093   0.0012   0.0017  -0.0009   0.00   11.1
2025/08/02 00:09:40.000        17.9392       -21.3780         0.3033   1  12   0.0041   0.0042   0.0092  -0.0004   0.0016   0.0008   0.00   11.0
2025/08/02 00:09:41.000        17.9250       -21.3851         0.2943   1  12   0.0043   0.0045   0.0093  -0.0015   0.0016  -0.0009   0.00   11.0
2025/08/02 00:09:42.000        17.9148       -21.3935         0.2893   1  12   0.0035   0.0043   0.0090   0.0013   0.0014   0.0011   0.00   11.0
2025/08/02 00:09:43.000        17.9128       -21.3925         0.2857   1  12   0.0035   0.0040   0.0093  -0.0004   0.0021   0.0016   0.00   10.9
2025/08/02 00:09:44.000        17.9263       -21.3889         0.3010   1  12   0.0042   0.0047   0.0091   0.0008  -0.0006   0.0019   0.00   10.9
2025/08/02 00:09:45.000        17.9364       -21.3795         0.3002   1  12   0.0043   0.0039   0.0091   0.0007   0.0018  -0.0010   0.00   10.8
2025/08/02 00:09:46.000        17.9360       -21.3787         0.3022   1  12   0.0041   0.0042   0.0090   0.0020  -0.0008  -0.0014   0.00   10.8
2025/08/02 00:09:47.000        17.9284       -21.3884         0.2987   1  12   0.0037   0.0041   0.0090   0.0007   0.0004   0.0011   0.00   10.7
2025/08/02 00:09:48.000        17.9199       -21.3975         0.2809   1  12   0.0036   0.0040   0.0091   0.0012   0.0009   0.0014   0.00   10.7
2025/08/02 00:09:49.000        17.9173       -21.4006         0.2758   1  12   0.0038   0.0041   0.0089   0.0019  -0.0001   0.0015   0.00   10.6
2025/08/02 00:09:50.000        17.9126       -21.4013         0.2653   1  12   0.0039   0.0041   0.0092  -0.0008   0.0016   0.0017   0.00   10.6
2025/08/02 00:09:51.000        17.9132       -21.3953         0.2544   1  12   0.0041   0.0038   0.0093  -0.0007   0.0017  -0.0013   0.00   10.5
2025/08/02 00:09:52.000        17.9170       -21.3956         0.2674   1  12   0.0042   0.0045   0.0092   0.0014   0.0011   0.0012   0.00   10.5
2025/08/02 00:09:53.000        17.9259       -21.3900         0.2675   1  12   0.0045   0.0036   0.0095  -0.0005   0.0028  -0.0012   0.00   10.4
2025/08/02 00:09:54.000        17.9373       -21.3807         0.2692   1  12   0.0038   0.0039   0.0094  -0.0015   0.0017   0.0015   0.00   10.4
2025/08/02 00:09:55.000        17.9332       -21.3799         0.2773   1  12   0.0029   0.0030   0.0065   0.0005   0.0007   0.0006   0.00    3.3
2025/08/02 00:09:56.000        17.9232       -21.3907         0.2593   1  12   0.0027   0.0032   0.0064   0.0006   0.0007   0.0016   0.00    3.3
2025/08/02 00:09:57.000        17.9111       -21.3994         0.2633   1  12   0.0029   0.0031   0.0064  -0.0008   0.0005   0.0011   0.00    3.4
2025/08/02 00:09:58.000        17.9054       -21.4006         0.2356   1  12   0.0030   0.0029   0.0064   0.0007   0.0009   0.0006   0.00    3.4
2025/08/02 00:09:59.000        17.9067       -21.4046         0.2669   1  12   0.0030   0.0027   0.0063   0.0010   0.0007   0.0009   0.00    3.4
2025/08/02 00:10:00.000        17.9146       -21.3951         0.2722   1  12   0.0030   0.0031   0.0062   0.0006  -0.0006   0.0007   0.00    3.4
2025/08/02 00:10:01.000        17.9315       -21.3882         0.2863   1  12   0.0028   0.0027   0.0064   0.0006  -0.0006   0.0009   0.00    3.4
2025/08/02 00:10:02.000        17.9353       -21.3857         0.3065   1  12   0.0028   0.0030   0.0065  -0.0005   0.0010   0.0008   0.00    3.4
2025/08/02 00:10:03.000        17.9380       -21.3821         0.3071   1  12   0.0031   0.0032   0.0064   0.0003   0.0001   0.0010   0.00    3.4
2025/08/02 00:10:04.000        17.9311       -21.3858         0.3075   1  12   0.0029   0.0028   0.0065   0.0006   0.0010   0.0006   0.00    3.4
2025/08/02 00:10:05.000        17.9166       -21.3924         0.3029   1  12   0.0027   0.0030   0.0065   0.0006   0.0010   0.0008   0.00    3.5
2025/08/02 00:10:06.000        17.9012       -21.4084         0.2966   1  12   0.0028   0.0035   0.0062   0.0011  -0.0011   0.0012   0.00    3.5
2025/08/02 00:10:07.000        17.9016       -21.4100         0.2869   1  12   0.0027   0.0030   0.0064   0.0009   0.0004   0.0008   0.00    3.5
2025/08/02 00:10:08.000        17.9154       -21.3982         0.2886   1  12   0.0028   0.0030   0.0064  -0.0001   0.0005   0.0008   0.00    3.5
2025/08/02 00:10:09.000        17.9260       -21.3948         0.3017   1  12   0.0028   0.0032   0.0064  -0.0005  -0.0006   0.0010   0.00    3.5
2025/08/02 00:10:10.000        17.9301       -21.3902         0.3175   1  12   0.0028   0.0032   0.0063   0.0012   0.0003   0.0007   0.00    3.5
2025/08/02 00:10:11.000        17.9208       -21.3919         0.3099   1  12   0.0031   0.0030   0.0064   0.0007   0.0011  -0.0002   0.00    3.5
2025/08/02 00:10:12.000        17.9045       -21.4089         0.3010   1  12   0.0029   0.0031   0.0065  -0.0005   0.0012   0.0010   0.00    3.5
2025/08/02 00:10:13.000        17.9016       -21.4073         0.2828   1  12   0.0029   0.0031   0.0064   0.0011  -0.0002   0.0013   0.00    3.5
2025/08/02 00:10:14.000        17.8949       -21.4194         0.2881   1  12   0.0028   0.0027   0.0066   0.0004   0.0011  -0.0002   0.00    3.6
2025/08/02 00:10:15.000        17.9135       -21.4012         0.2494   1  12   0.0026   0.0028   0.0064   0.0009   0.0009   0.0007   0.00    3.1
2025/08/02 00:10:16.000        17.9186       -21.3924         0.2270   1  12   0.0028   0.0030   0.0064  -0.0002  -0.0007  -0.0007   0.00    3.1
2025/08/02 00:10:17.000        17.9178       -21.3953         0.2274   1  12   0.0030   0.0029   0.0065   0.0003   0.0010  -0.0008   0.00    3.1
2025/08/02 00:10:18.000        17.9083       -21.4033         0.2359   1  12   0.0031   0.0030   0.0065   0.0004   0.0008   0.0010   0.00    3.1
2025/08/02 00:10:19.000        17.8944       -21.4131         0.2672   1  12   0.0030   0.0030   0.0064   0.0009   0.0005   0.0010   0.00    3.1
2025/08/02 00:10:20.000        17.8960       -21.4174         0.2547   1  12   0.0028   0.0029   0.0064   0.0011  -0.0005   0.0013   0.00    3.1
2025/08/02 00:10:21.000        17.8948       -21.4185         0.2619   1  12   0.0026   0.0028   0.0065   0.0006   0.0014   0.0012   0.00    3.1
2025/08/02 00:10:22.000        17.8961       -21.4168         0.2496   1  12   0.0029   0.0033   0.0063   0.0008  -0.0013   0.0017   0.00    3.1
2025/08/02 00:10:23.000        17.8984       -21.4176         0.2307   1  12   0.0026   0.0032   0.0063   0.0010  -0.0006   0.0011   0.00    3.1
2025/08/02 00:10:24.000        17.9060       -21.4115         0.2375   1  12   0.0028   0.0026   0.0064   0.0008   0.0010  -0.0005   0.00    3.1
2025/08/02 00:10:25.000        17.8949       -21.4103         0.2430   1  12   0.0027   0.0028   0.0064   0.0004   0.0007   0.0011   0.00    3.1
2025/08/02 00:10:26.000        17.8990       -21.4213         0.2377   1  12   0.0027   0.0030   0.0063   0.0009  -0.0008   0.0010   0.00    3.2
2025/08/02 00:10:27.000        17.8862       -21.4238         0.2683   1  12   0.0027   0.0028   0.0063   0.0011   0.0006  -0.0009   0.00    3.2
2025/08/02 00:10:28.000        17.8836       -21.4308         0.2761   1  12   0.0029   0.0032   0.0064   0.0004   0.0006   0.0002   0.00    3.2
2025/08/02 00:10:29.000        17.8868       -21.4230         0.2841   1  12   0.0029   0.0030   0.0064   0.0007   0.0009  -0.0009   0.00    3.2
2025/08/02 00:10:30.000        17.8899       -21.4220         0.2724   1  12   0.0031   0.0033   0.0064   0.0010  -0.0003   0.0009   0.00    3.2
2025/08/02 00:10:31.000        17.8921       -21.4195         0.2720   1  12   0.0026   0.0033   0.0064   0.0003  -0.0005  -0.0003   0.00    3.2
2025/08/02 00:10:32.000        17.8997       -21.4191         0.2750   1  12   0.0030   0.0029   0.0064   0.0006   0.0008  -0.0005   0.00    3.2
2025/08/02 00:10:33.000        17.9007       -21.4164         0.2697   1  12   0.0027   0.0029   0.0065   0.0009   0.0011   0.0006   0.00    3.2
2025/08/02 00:10:34.000        17.8901       -21.4196         0.2912   1  12   0.0028   0.0031   0.0065  -0.0005   0.0011   0.0010   0.00    3.2
2025/08/02 00:10:35.000        17.8894       -21.4195         0.2967   1  12   0.0027   0.0031   0.0063   0.0010  -0.0003   0.0006   0.00    3.2
2025/08/02 00:10:36.000        17.8859       -21.4212         0.3009   1  12   0.0031   0.0029   0.0065  -0.0003   0.0010   0.0007   0.00    3.2
2025/08/02 00:10:37.000        17.8860       -21.4204         0.3113   1  12   0.0030   0.0028   0.0065  -0.0004   0.0012  -0.0004   0.00    3.2
2025/08/02 00:10:38.000        17.8955       -21.4160         0.2930   1  12   0.0030   0.0029   0.0065  -0.0006   0.0014  -0.0002   0.00    3.2
2025/08/02 00:10:39.000        17.8940       -21.4156         0.2887   1  12   0.0028   0.0031   0.0063   0.0005   0.0005  -0.0006   0.00    3.2
2025/08/02 00:10:40.000        17.8960       -21.4086         0.2902   1  12   0.0026   0.0032   0.0064   0.0003  -0.0006   0.0011   0.00    3.2
2025/08/02 00:10:41.000        17.9027       -21.4128         0.2764   1  12   0.0028   0.0032   0.0063   0.0008  -0.0009   0.0005   0.00    3.3
2025/08/02 00:10:42.000        17.9036       -21.4105         0.2763   1  12   0.0026   0.0030   0.0064   0.0008   0.0006   0.0008   0.00    3.3
2025/08/02 00:10:43.000        17.9012       -21.4123         0.2754   1  12   0.0027   0.0032   0.0063   0.0010   0.0006   0.0013   0.00    3.3
2025/08/02 00:10:44.000        17.8972       -21.4149         0.2734   1  12   0.0026   0.0032   0.0064  -0.0001  -0.0004   0.0007   0.00    3.3
2025/08/02 00:10:45.000        17.8975       -21.4180         0.2759   1  12   0.0028   0.0030   0.0065  -0.0002   0.0005   0.0008   0.00    3.3
2025/08/02 00:10:46.000        17.8935       -21.4176         0.2524   1  12   0.0029   0.0028   0.0065   0.0008   0.0010   0.0013   0.00    3.3
2025/08/02 00:10:47.000        17.9008       -21.4151         0.2419   1  12   0.0028   0.0033   0.0063   0.0010  -0.0006  -0.0005   0.00    3.3
2025/08/02 00:10:48.000        17.9128       -21.4156         0.2347   1  12   0.0029   0.0030   0.0064   0.0010  -0.0007   0.0009   0.00    3.3
2025/08/02 00:10:49.000        17.9107       -21.4051         0.2345   1  12   0.0029   0.0031   0.0064   0.0006   0.0007   0.0007   0.00    3.3
2025/08/02 00:10:50.000        17.9051       -21.4129         0.2402   1  12   0.0026   0.0032   0.0064   0.0009  -0.0006   0.0007   0.00    3.3
2025/08/02 00:10:51.000        17.8985       -21.4137         0.2511   1  12   0.0026   0.0031   0.0064   0.0008   0.0004   0.0011   0.00    3.4
2025/08/02 00:10:52.000        17.8944       -21.4188         0.2715   1  12   0.0028   0.0031   0.0063   0.0011   0.0002   0.0006   0.00    3.4
2025/08/02 00:10:53.000        17.9065       -21.4088         0.2768   1  12   0.0025   0.0029   0.0064   0.0012  -0.0006   0.0004   0.00    3.4
2025/08/02 00:10:54.000        17.9186       -21.3979         0.2614   1  12   0.0030   0.0028   0.0064   0.0008   0.0003  -0.0007   0.00    3.4
2025/08/02 00:10:55.000        17.9188       -21.3955         0.2591   1  12   0.0027   0.0032   0.0064  -0.0005  -0.0005   0.0011   0.00    3.4
2025/08/02 00:10:56.000        17.9193       -21.3941         0.2638   1  12   0.0028   0.0030   0.0064   0.0010  -0.0012   0.0010   0.00    3.4
2025/08/02 00:10:57.000        17.9103       -21.4007         0.2538   1  12   0.0027   0.0031   0.0064   0.0009  -0.0006   0.0007   0.00    3.4
2025/08/02 00:10:58.000        17.9133       -21.3999         0.2661   1  12   0.0030   0.0029   0.0064   0.0006   0.0005   0.0004   0.00    3.4
2025/08/02 00:10:59.000        17.9177       -21.4003         0.2822   1  12   0.0027   0.0030   0.0066   0.0005   0.0001   0.0009   0.00    3.4
2025/08/02 00:11:00.000        17.9274       -21.3936         0.3033   1  12   0.0029   0.0030   0.0065   0.0004  -0.0005  -0.0009   0.00    3.4
2025/08/02 00:11:01.000        17.9402       -21.3880         0.2969   1  12   0.0026   0.0032   0.0065   0.0008  -0.0014   0.0009   0.00    3.4
2025/08/02 00:11:02.000        17.9412       -21.3754         0.3018   1  11   0.0031   0.0030   0.0068   0.0010  -0.0012   0.0007   0.00    3.4
2025/08/02 00:11:03.000        17.9383       -21.3773         0.2893   1  11   0.0031   0.0031   0.0068   0.0012  -0.0011  -0.0008   0.00    3.4
2025/08/02 00:11:04.000        17.9381       -21.3815         0.2727   1  11   0.0029   0.0034   0.0068   0.0010  -0.0010  -0.0006   0.00    3.5
2025/08/02 00:11:05.000        17.9314       -21.3891         0.2714   1  11   0.0028   0.0029   0.0068   0.0008  -0.0005  -0.0014   0.00    3.5
2025/08/02 00:11:06.000        17.9418       -21.3857         0.2820   1  11   0.0031   0.0032   0.0069   0.0011  -0.0011  -0.0012   0.00    3.5
2025/08/02 00:11:07.000        17.9435       -21.3762         0.2716   1  11   0.0028   0.0027   0.0068   0.0011  -0.0010  -0.0010   0.00    3.5
2025/08/02 00:11:08.000        17.9589       -21.3644         0.2835   1  11   0.0029   0.0032   0.0068   0.0011  -0.0011  -0.0013   0.00    3.5
2025/08/02 00:11:09.000        17.9727       -21.3570         0.2782   1  11   0.0026   0.0030   0.0067   0.0013  -0.0017   0.0000   0.00    3.5
2025/08/02 00:11:10.000        17.9784       -21.3542         0.2777   1  11   0.0028   0.0030   0.0069   0.0007  -0.0010  -0.0008   0.00    3.5
2025/08/02 00:11:11.000        17.9706       -21.3515         0.2558   1  11   0.0027   0.0032   0.0068   0.0010  -0.0012  -0.0007   0.00    3.5
2025/08/02 00:11:12.000        17.9679       -21.3614         0.2468   1  11   0.0026   0.0033   0.0068  -0.0001  -0.0009  -0.0014   0.00    3.5
2025/08/02 00:11:13.000        17.9590       -21.3632         0.2394   1  11   0.0028   0.0032   0.0068   0.0009  -0.0013  -0.0004   0.00    3.5
2025/08/02 00:11:14.000        17.9588       -21.3639         0.2297   1  11   0.0028   0.0034   0.0067   0.0012  -0.0016  -0.0008   0.00    3.5
2025/08/02 00:11:15.000        17.9738       -21.3543         0.2387   1  11   0.0026   0.0033   0.0068   0.0009  -0.0012  -0.0012   0.00    3.5
2025/08/02 00:11:16.000        17.9850       -21.3434         0.2409   1  11   0.0031   0.0032   0.0068   0.0010  -0.0012  -0.0007   0.00    3.5
2025/08/02 00:11:17.000        17.9972       -21.3405         0.2465   1  11   0.0028   0.0028   0.0069   0.0002   0.0005  -0.0015   0.00    3.5
2025/08/02 00:11:18.000        17.9922       -21.3459         0.2404   1  11   0.0028   0.0029   0.0069   0.0011  -0.0013  -0.0009   0.00    3.5
2025/08/02 00:11:19.000        17.9816       -21.3511         0.2412   1  11   0.0027   0.0031   0.0068   0.0007  -0.0015   0.0003   0.00    3.5
2025/08/02 00:11:20.000        17.9872       -21.3502         0.2410   1  11   0.0029   0.0030   0.0069   0.0006  -0.0007  -0.0013   0.00    3.5
2025/08/02 00:11:21.000        17.9838       -21.3477         0.2539   1  11   0.0029   0.0032   0.0068   0.0009  -0.0010  -0.0011   0.00    3.5
2025/08/02 00:11:22.000        17.9933       -21.3426         0.2549   1  11   0.0030   0.0030   0.0069   0.0010  -0.0012  -0.0005   0.00    3.5
2025/08/02 00:11:23.000        18.0007       -21.3368         0.2621   1  11   0.0028   0.0033   0.0067   0.0010  -0.0015  -0.0010   0.00    3.5
2025/08/02 00:11:24.000        17.9919       -21.3377         0.2606   1  11   0.0032   0.0029   0.0068   0.0013  -0.0014   0.0008   0.00    3.5
2025/08/02 00:11:25.000        18.0026       -21.3359         0.2617   1  11   0.0029   0.0029   0.0069   0.0010  -0.0009  -0.0015   0.00    3.5
2025/08/02 00:11:26.000        17.9971       -21.3386         0.2725   1  11   0.0028   0.0029   0.0068   0.0010  -0.0012  -0.0007   0.00    3.5
2025/08/02 00:11:27.000        17.9955       -21.3363         0.2625   1  11   0.0029   0.0031   0.0068   0.0011  -0.0011  -0.0006   0.00    3.5
2025/08/02 00:11:28.000        17.9969       -21.3405         0.2703   1  11   0.0029   0.0032   0.0068   0.0008  -0.0012  -0.0009   0.00    3.5
2025/08/02 00:11:29.000        17.9912       -21.3428         0.2831   1  11   0.0031   0.0030   0.0068   0.0013  -0.0013  -0.0004   0.00    3.5
2025/08/02 00:11:30.000        17.9919       -21.3460         0.2993   1  11   0.0027   0.0033   0.0067   0.0011  -0.0014  -0.0005   0.00    3.5
2025/08/02 00:11:31.000        17.9985       -21.3386         0.2984   1  11   0.0030   0.0028   0.0069   0.0010  -0.0008  -0.0013   0.00    3.5
2025/08/02 00:11:32.000        17.9935       -21.3374         0.2945   1  11   0.0030   0.0028   0.0069   0.0008  -0.0009  -0.0007   0.00    3.5
2025/08/02 00:11:33.000        17.9958       -21.3333         0.2934   1  11   0.0028   0.0033   0.0067   0.0011  -0.0015  -0.0004   0.00    3.5
2025/08/02 00:11:34.000        17.9963       -21.3408         0.2798   1  11   0.0029   0.0031   0.0069  -0.0002  -0.0006  -0.0014   0.00    3.5
2025/08/02 00:11:35.000        17.9899       -21.3421         0.2675   1  11   0.0030   0.0030   0.0068   0.0010  -0.0011  -0.0012   0.00    3.5
2025/08/02 00:11:36.000        17.9856       -21.3445         0.2691   1  11   0.0028   0.0033   0.0067   0.0012  -0.0015  -0.0007   0.00    3.5
2025/08/02 00:11:37.000        17.9897       -21.3403         0.2585   1  11   0.0027   0.0032   0.0068   0.0011  -0.0016  -0.0004   0.00    3.5
2025/08/02 00:11:38.000        17.9875       -21.3454         0.2494   1  11   0.0028   0.0031   0.0068   0.0008  -0.0015   0.0004   0.00    3.5
2025/08/02 00:11:39.000        17.9863       -21.3495         0.2603   1  11   0.0031   0.0031   0.0068   0.0011  -0.0013   0.0003   0.00    3.5
2025/08/02 00:11:40.000        17.9764       -21.3495         0.2553   1  11   0.0029   0.0030   0.0067   0.0014  -0.0015  -0.0008   0.00    3.5
2025/08/02 00:11:41.000        17.9822       -21.3547         0.2477   1  11   0.0027   0.0029   0.0068   0.0009  -0.0016   0.0006   0.00    3.5
2025/08/02 00:11:42.000        17.9823       -21.3470         0.2704   1  11   0.0029   0.0031   0.0068   0.0007  -0.0013  -0.0010   0.00    3.5
2025/08/02 00:11:43.000        17.9818       -21.3488         0.2516   1  11   0.0030   0.0029   0.0068   0.0012  -0.0012  -0.0010   0.00    3.5
2025/08/02 00:11:44.000        17.9785       -21.3511         0.2370   1  11   0.0030   0.0030   0.0068   0.0010  -0.0013  -0.0007   0.00    3.5
2025/08/02 00:11:45.000        17.9805       -21.3501         0.2220   1  11   0.0029   0.0032   0.0068   0.0006  -0.0010  -0.0012   0.00    3.5
2025/08/02 00:11:46.000        17.9722       -21.3532         0.2145   1  11   0.0029   0.0031   0.0068   0.0009  -0.0014  -0.0006   0.00    3.5
2025/08/02 00:11:47.000        17.9767       -21.3610         0.2258   1  11   0.0028   0.0031   0.0067   0.0011  -0.0016  -0.0010   0.00    3.5
2025/08/02 00:11:48.000        17.9763       -21.3586         0.2417   1  11   0.0030   0.0029   0.0069   0.0010  -0.0010  -0.0003   0.00    3.5
2025/08/02 00:11:49.000        17.9685       -21.3552         0.2611   1  11   0.0029   0.0032   0.0069   0.0011  -0.0006  -0.0012   0.00    3.5
2025/08/02 00:11:50.000        17.9648       -21.3622         0.2700   1  11   0.0030   0.0033   0.0067   0.0010  -0.0012  -0.0014   0.00    3.5
2025/08/02 00:11:51.000        17.9687       -21.3562         0.2765   1  11   0.0032   0.0028   0.0069   0.0009  -0.0009  -0.0011   0.00    3.5
2025/08/02 00:11:52.000        17.9711       -21.3563         0.2694   1  11   0.0030   0.0032   0.0067   0.0007  -0.0015  -0.0011   0.00    3.5
2025/08/02 00:11:53.000        17.9749       -21.3496         0.2813   1  11   0.0029   0.0031   0.0069  -0.0005  -0.0011  -0.0011   0.00    3.5
2025/08/02 00:11:54.000        17.9684       -21.3551         0.2701   1  11   0.0028   0.0034   0.0068   0.0014  -0.0013   0.0007   0.00    3.5
2025/08/02 00:11:55.000        17.9650       -21.3612         0.2775   1  11   0.0032   0.0031   0.0069   0.0010  -0.0010  -0.0008   0.00    3.5
2025/08/02 00:11:56.000        17.9550       -21.3675         0.2878   1  11   0.0029   0.0031   0.0068   0.0012  -0.0013  -0.0009   0.00    3.5
2025/08/02 00:11:57.000        17.9575       -21.3638         0.2911   1  11   0.0031   0.0029   0.0070   0.0004   0.0006  -0.0005   0.00    3.5
2025/08/02 00:11:58.000        17.9538       -21.3689         0.2955   1  11   0.0027   0.0031   0.0069   0.0008  -0.0006  -0.0008   0.00    3.5
2025/08/02 00:11:59.000        17.9591       -21.3649         0.2923   1  11   0.0030   0.0034   0.0068   0.0008  -0.0011   0.0010   0.00    3.5
2025/08/02 00:12:00.000        17.9694       -21.3550         0.3028   1  11   0.0028   0.0030   0.0068   0.0010  -0.0008  -0.0012   0.00    3.5
2025/08/02 00:12:01.000        17.9680       -21.3556         0.2864   1  11   0.0029   0.0030   0.0069   0.0009  -0.0006  -0.0012   0.00    3.5
2025/08/02 00:12:02.000        17.9633       -21.3579         0.2986   1  11   0.0029   0.0033   0.0068   0.0012  -0.0011  -0.0006   0.00    3.5
2025/08/02 00:12:03.000        17.9531       -21.3707         0.2795   1  11   0.0029   0.0031   0.0070   0.0009   0.0005  -0.0009   0.00    3.5
2025/08/02 00:12:04.000        17.9458       -21.3759         0.2670   1  11   0.0028   0.0030   0.0070   0.0009   0.0008  -0.0015   0.00    3.5
2025/08/02 00:12:05.000        17.9424       -21.3767         0.2689   1  11   0.0026   0.0032   0.0069   0.0013  -0.0010  -0.0007   0.00    3.6
2025/08/02 00:12:06.000        17.9513       -21.3702         0.2795   1  11   0.0030   0.0028   0.0072   0.0010   0.0011   0.0007   0.00    3.6
2025/08/02 00:12:07.000        17.9541       -21.3684         0.2926   1  11   0.0029   0.0033   0.0072   0.0012   0.0015   0.0007   0.00    5.3
2025/08/02 00:12:08.000        17.9564       -21.3688         0.2780   1  11   0.0029   0.0033   0.0072   0.0011   0.0012   0.0008   0.00    5.3
2025/08/02 00:12:09.000        17.9489       -21.3730         0.2654   1  11   0.0030   0.0033   0.0071   0.0015   0.0012   0.0009   0.00    5.3
2025/08/02 00:12:10.000        17.9378       -21.3807         0.2580   1  11   0.0028   0.0033   0.0072   0.0013   0.0015   0.0004   0.00    5.3
2025/08/02 00:12:11.000        17.9339       -21.3838         0.2447   1  11   0.0029   0.0035   0.0072   0.0014   0.0013   0.0010   0.00    5.3
2025/08/02 00:12:12.000        17.9315       -21.3904         0.2531   1  11   0.0030   0.0036   0.0072   0.0017   0.0014   0.0012   0.00    5.3
2025/08/02 00:12:13.000        17.9314       -21.3915         0.2561   1  11   0.0027   0.0036   0.0073   0.0015   0.0016   0.0013   0.00    5.3
2025/08/02 00:12:14.000        17.9401       -21.3824         0.2505   1  10   0.0030   0.0038   0.0075   0.0017   0.0025   0.0013   0.00    5.4
2025/08/02 00:12:15.000        17.9443       -21.3769         0.2605   1  10   0.0032   0.0038   0.0076   0.0019   0.0024   0.0014   0.00    5.4
2025/08/02 00:12:16.000        17.9386       -21.3771         0.2549   1  10   0.0030   0.0036   0.0076   0.0017   0.0025   0.0016   0.00    5.4
2025/08/02 00:12:17.000        17.9369       -21.3838         0.2680   1  10   0.0029   0.0037   0.0075   0.0018   0.0024   0.0012   0.00    5.4
2025/08/02 00:12:18.000        17.9207       -21.3921         0.2626   1  10   0.0032   0.0037   0.0076   0.0020   0.0025   0.0014   0.00    5.4
2025/08/02 00:12:19.000        17.9132       -21.4026         0.2565   1  10   0.0031   0.0036   0.0076   0.0017   0.0026   0.0014   0.00    5.4
2025/08/02 00:12:20.000        17.9182       -21.4003         0.2609   1  10   0.0030   0.0039   0.0075   0.0017   0.0023   0.0017   0.00    5.4
2025/08/02 00:12:21.000        17.9170       -21.3987         0.2740   1  10   0.0032   0.0039   0.0076   0.0015   0.0024   0.0018   0.00    5.4
2025/08/02 00:12:22.000        17.9269       -21.3931         0.2894   1  10   0.0031   0.0037   0.0075   0.0020   0.0024   0.0016   0.00    5.4
2025/08/02 00:12:23.000        17.9288       -21.3860         0.2869   1  10   0.0031   0.0038   0.0075   0.0021   0.0023   0.0020   0.00    5.4
2025/08/02 00:12:24.000        17.9274       -21.3944         0.3065   1  10   0.0032   0.0040   0.0076   0.0017   0.0024   0.0014   0.00    5.3
2025/08/02 00:12:25.000        17.9194       -21.3948         0.3076   1  10   0.0030   0.0038   0.0075   0.0019   0.0025   0.0013   0.00    5.3
2025/08/02 00:12:26.000        17.9015       -21.4109         0.2921   1  10   0.0029   0.0037   0.0075   0.0019   0.0025   0.0013   0.00    5.3
2025/08/02 00:12:27.000        17.8966       -21.4180         0.2859   1  10   0.0029   0.0037   0.0075   0.0018   0.0024   0.0016   0.00    5.3
2025/08/02 00:12:28.000        17.9007       -21.4079         0.2929   1  10   0.0030   0.0038   0.0076   0.0016   0.0026   0.0013   0.00    5.3
2025/08/02 00:12:29.000        17.9089       -21.4059         0.2949   1  10   0.0030   0.0039   0.0075   0.0019   0.0023   0.0017   0.00    5.3
2025/08/02 00:12:30.000        17.9171       -21.3958         0.2915   1  10   0.0031   0.0038   0.0076   0.0015   0.0025   0.0016   0.00    5.3
2025/08/02 00:12:31.000        17.9228       -21.3964         0.3095   1  10   0.0029   0.0040   0.0075   0.0019   0.0022   0.0021   0.00    5.3
2025/08/02 00:12:32.000        17.9062       -21.4104         0.3060   1  10   0.0032   0.0037   0.0076   0.0018   0.0025   0.0015   0.00    5.3
2025/08/02 00:12:33.000        17.8926       -21.4233         0.2858   1  10   0.0029   0.0039   0.0075   0.0019   0.0023   0.0016   0.00    5.3
2025/08/02 00:12:34.000        17.8761       -21.4294         0.2724   1  10   0.0029   0.0040   0.0075   0.0018   0.0022   0.0016   0.00    5.3
2025/08/02 00:12:35.000        17.8838       -21.4283         0.2622   1  10   0.0030   0.0038   0.0075   0.0017   0.0022   0.0017   0.00    5.3
2025/08/02 00:12:36.000        17.8884       -21.4228         0.2573   1  10   0.0031   0.0038   0.0075   0.0017   0.0024   0.0017   0.00    5.4
2025/08/02 00:12:37.000        17.8932       -21.4198         0.2451   1  10   0.0029   0.0037   0.0075   0.0019   0.0023   0.0019   0.00    5.4
2025/08/02 00:12:38.000        17.8918       -21.4183         0.2403   1  10   0.0030   0.0036   0.0075   0.0018   0.0024   0.0017   0.00    5.4
2025/08/02 00:12:39.000        17.8886       -21.4253         0.2555   1  10   0.0030   0.0039   0.0075   0.0017   0.0022   0.0018   0.00    5.4
2025/08/02 00:12:40.000        17.8860       -21.4303         0.2538   1  10   0.0029   0.0038   0.0075   0.0018   0.0025   0.0015   0.00    5.4
2025/08/02 00:12:41.000        17.8865       -21.4268         0.2704   1  10   0.0030   0.0037   0.0075   0.0016   0.0025   0.0016   0.00    5.4
2025/08/02 00:12:42.000        17.8796       -21.4314         0.2568   1  10   0.0031   0.0038   0.0076   0.0017   0.0024   0.0018   0.00    5.4
2025/08/02 00:12:43.000        17.8799       -21.4310         0.2536   1  10   0.0032   0.0040   0.0075   0.0016   0.0023   0.0018   0.00    5.4
2025/08/02 00:12:44.000        17.8816       -21.4309         0.2429   1  10   0.0031   0.0040   0.0075   0.0019   0.0022   0.0017   0.00    5.4
2025/08/02 00:12:45.000        17.8885       -21.4228         0.2372   1  10   0.0030   0.0037   0.0076   0.0015   0.0026   0.0018   0.00    5.4
2025/08/02 00:12:46.000        17.8902       -21.4197         0.2650   1  10   0.0029   0.0037   0.0076   0.0016   0.0025   0.0015   0.00    5.5
2025/08/02 00:12:47.000        17.8875       -21.4249         0.2721   1  10   0.0028   0.0039   0.0075   0.0018   0.0022   0.0021   0.00    5.5
2025/08/02 00:12:48.000        17.8742       -21.4285         0.2726   1  10   0.0033   0.0039   0.0075   0.0018   0.0024   0.0017   0.00    5.5
2025/08/02 00:12:49.000        17.8691       -21.4326         0.2868   1  10   0.0032   0.0038   0.0076   0.0016   0.0024   0.0016   0.00    5.5
2025/08/02 00:12:50.000        17.8749       -21.4324         0.2888   1  10   0.0030   0.0040   0.0075   0.0018   0.0024   0.0015   0.00    5.5
2025/08/02 00:12:51.000        17.8720       -21.4309         0.2803   1  10   0.0030   0.0038   0.0076   0.0018   0.0023   0.0016   0.00    5.5
2025/08/02 00:12:52.000        17.8817       -21.4308         0.2811   1  10   0.0032   0.0037   0.0076   0.0018   0.0025   0.0012   0.00    5.5
2025/08/02 00:12:53.000        17.8791       -21.4321         0.2864   1  10   0.0029   0.0036   0.0076   0.0017   0.0025   0.0017   0.00    5.5
2025/08/02 00:12:54.000        17.8766       -21.4336         0.2969   1  10   0.0027   0.0038   0.0075   0.0016   0.0023   0.0017   0.00    5.6
2025/08/02 00:12:55.000        17.8739       -21.4318         0.2966   1  10   0.0031   0.0037   0.0076   0.0018   0.0025   0.0016   0.00    5.6
2025/08/02 00:12:56.000        17.8801       -21.4273         0.2961   1  10   0.0032   0.0038   0.0076   0.0019   0.0023   0.0019   0.00    5.6
2025/08/02 00:12:57.000        17.8950       -21.4185         0.3086   1  10   0.0027   0.0036   0.0075   0.0018   0.0025   0.0018   0.00    5.6
2025/08/02 00:12:58.000        17.9046       -21.4114         0.3001   1  10   0.0030   0.0039   0.0074   0.0020   0.0021   0.0018   0.00    5.6
2025/08/02 00:12:59.000        17.8988       -21.4124         0.2837   1  10   0.0031   0.0037   0.0075   0.0018   0.0025   0.0016   0.00    5.6
2025/08/02 00:13:00.000        17.8933       -21.4181         0.2818   1  10   0.0032   0.0037   0.0076   0.0019   0.0025   0.0017   0.00    5.6
2025/08/02 00:13:01.000        17.8849       -21.4236         0.2802   1  10   0.0031   0.0036   0.0076   0.0018   0.0025   0.0015   0.00    5.6
2025/08/02 00:13:02.000        17.8876       -21.4233         0.2932   1  10   0.0029   0.0039   0.0075   0.0018   0.0024   0.0016   0.00    5.7
2025/08/02 00:13:03.000        17.9004       -21.4159         0.2992   1  10   0.0033   0.0039   0.0075   0.0018   0.0024   0.0018   0.00    5.7
2025/08/02 00:13:04.000        17.9107       -21.4022         0.2853   1  10   0.0029   0.0038   0.0075   0.0018   0.0024   0.0014   0.00    5.7
2025/08/02 00:13:05.000        17.9208       -21.3944         0.2727   1  10   0.0029   0.0037   0.0076   0.0017   0.0025   0.0016   0.00    5.7
2025/08/02 00:13:06.000        17.9161       -21.3979         0.2623   1  10   0.0032   0.0039   0.0076   0.0018   0.0023   0.0018   0.00    5.7
2025/08/02 00:13:07.000        17.9185       -21.4052         0.2479   1  10   0.0031   0.0036   0.0076   0.0018   0.0026   0.0014   0.00    5.7
2025/08/02 00:13:08.000        17.9077       -21.4044         0.2524   1  10   0.0030   0.0037   0.0075   0.0019   0.0023   0.0018   0.00    5.7
2025/08/02 00:13:09.000        17.9059       -21.4124         0.2556   1  10   0.0032   0.0040   0.0075   0.0017   0.0024   0.0016   0.00    5.7
2025/08/02 00:13:10.000        17.9219       -21.3960         0.2688   1  10   0.0033   0.0039   0.0075   0.0018   0.0025   0.0015   0.00    5.8
2025/08/02 00:13:11.000        17.9368       -21.3844         0.2827   1  10   0.0032   0.0037   0.0075   0.0018   0.0025   0.0015   0.00    5.8
2025/08/02 00:13:12.000        17.9547       -21.3669         0.2883   1  10   0.0031   0.0041   0.0075   0.0018   0.0022   0.0019   0.00    5.8
2025/08/02 00:13:13.000        17.9585       -21.3654         0.2819   1  10   0.0029   0.0038   0.0076   0.0018   0.0025   0.0014   0.00    5.8
2025/08/02 00:13:14.000        17.9556       -21.3738         0.2571   1  10   0.0032   0.0038   0.0075   0.0017   0.0024   0.0017   0.00    5.8
2025/08/02 00:13:15.000        17.9405       -21.3797         0.2624   1  10   0.0030   0.0039   0.0075   0.0019   0.0025   0.0013   0.00    5.8
2025/08/02 00:13:16.000        17.9388       -21.3852         0.2586   1  10   0.0030   0.0039   0.0075   0.0017   0.0024   0.0018   0.00    5.8
2025/08/02 00:13:17.000        17.9447       -21.3768         0.2814   1  10   0.0031   0.0038   0.0075   0.0018   0.0024   0.0015   0.00    5.8
2025/08/02 00:13:18.000        17.9598       -21.3675         0.2718   1  10   0.0030   0.0037   0.0076   0.0017   0.0025   0.0014   0.00    5.8
2025/08/02 00:13:19.000        17.9705       -21.3530         0.2990   1  10   0.0029   0.0038   0.0075   0.0017   0.0024   0.0017   0.00    5.8
2025/08/02 00:13:20.000        17.9797       -21.3519         0.3189   1  10   0.0030   0.0039   0.0075   0.0018   0.0022   0.0017   0.00    5.9
2025/08/02 00:13:21.000        17.9776       -21.3529         0.3255   1  10   0.0031   0.0038   0.0075   0.0018   0.0025   0.0016   0.00    5.9
2025/08/02 00:13:22.000        17.9689       -21.3583         0.3179   1  10   0.0032   0.0039   0.0075   0.0018   0.0023   0.0017   0.00    5.9
2025/08/02 00:13:23.000        17.9669       -21.3605         0.3012   1  10   0.0030   0.0037   0.0075   0.0020   0.0024   0.0015   0.00    5.9
2025/08/02 00:13:24.000        17.9663       -21.3552         0.2781   1  10   0.0030   0.0039   0.0075   0.0016   0.0024   0.0014   0.00    5.9
2025/08/02 00:13:25.000        17.9760       -21.3489         0.2677   1  10   0.0029   0.0037   0.0076   0.0016   0.0024   0.0015   0.00    5.9
2025/08/02 00:13:26.000        17.9812       -21.3444         0.2574   1  10   0.0031   0.0040   0.0075   0.0018   0.0022   0.0017   0.00    5.9
2025/08/02 00:13:27.000        17.9872       -21.3426         0.2826   1  10   0.0033   0.0038   0.0075   0.0018   0.0023   0.0018   0.00    5.9
2025/08/02 00:13:28.000        17.9886       -21.3417         0.2901   1  10   0.0030   0.0038   0.0075   0.0018   0.0023   0.0019   0.00    6.0
2025/08/02 00:13:29.000        17.9825       -21.3489         0.2872   1  10   0.0031   0.0038   0.0075   0.0018   0.0025   0.0015   0.00    6.0
2025/08/02 00:13:30.000        17.9743       -21.3490         0.2931   1  10   0.0031   0.0039   0.0075   0.0017   0.0023   0.0018   0.00    6.0
2025/08/02 00:13:31.000        17.9759       -21.3465         0.2900   1  10   0.0030   0.0037   0.0075   0.0018   0.0024   0.0015   0.00    6.0
2025/08/02 00:13:32.000        17.9852       -21.3452         0.2516   1  10   0.0031   0.0037   0.0076   0.0017   0.0024   0.0017   0.00    6.0
2025/08/02 00:13:33.000        17.9880       -21.3400         0.2561   1  10   0.0030   0.0039   0.0075   0.0017   0.0023   0.0017   0.00    6.0
2025/08/02 00:13:34.000        17.9934       -21.3372         0.2372   1  10   0.0031   0.0039   0.0075   0.0018   0.0024   0.0017   0.00    6.0
2025/08/02 00:13:35.000        17.9905       -21.3409         0.2424   1  10   0.0030   0.0038   0.0075   0.0018   0.0024   0.0016   0.00    6.0
2025/08/02 00:13:36.000        17.9865       -21.3441         0.2558   1  10   0.0029   0.0038   0.0075   0.0018   0.0023   0.0015   0.00    6.0
2025/08/02 00:13:37.000        17.9783       -21.3461         0.2664   1  10   0.0031   0.0038   0.0075   0.0018   0.0025   0.0013   0.00    6.0
2025/08/02 00:13:38.000        17.9803       -21.3489         0.2740   1  10   0.0029   0.0040   0.0074   0.0019   0.0022   0.0019   0.00    6.0
2025/08/02 00:13:39.000        17.9874       -21.3372         0.2710   1  10   0.0028   0.0038   0.0075   0.0017   0.0025   0.0017   0.00    6.0
2025/08/02 00:13:40.000        17.9925       -21.3407         0.2642   1  10   0.0029   0.0040   0.0075   0.0018   0.0023   0.0016   0.00    6.1
2025/08/02 00:13:41.000        17.9932       -21.3397         0.2731   1  10   0.0029   0.0037   0.0075   0.0019   0.0023   0.0015   0.00    6.1
2025/08/02 00:13:42.000        17.9882       -21.3390         0.2573   1  10   0.0029   0.0038   0.0075   0.0018   0.0024   0.0013   0.00    6.1
2025/08/02 00:13:43.000        17.9925       -21.3410         0.2593   1  10   0.0030   0.0038   0.0075   0.0018   0.0024   0.0016   0.00    6.1
2025/08/02 00:13:44.000        17.9903       -21.3346         0.2825   1  10   0.0028   0.0038   0.0076   0.0018   0.0023   0.0014   0.00    6.1
2025/08/02 00:13:45.000        17.9917       -21.3417         0.2909   1  10   0.0031   0.0038   0.0076   0.0017   0.0026   0.0010   0.00    6.1
2025/08/02 00:13:46.000        17.9888       -21.3384         0.2962   1  10   0.0031   0.0037   0.0075   0.0018   0.0025   0.0016   0.00    6.1
2025/08/02 00:13:47.000        17.9863       -21.3416         0.2987   1  10   0.0032   0.0039   0.0075   0.0019   0.0024   0.0016   0.00    6.1
2025/08/02 00:13:48.000        17.9926       -21.3343         0.3000   1  10   0.0029   0.0037   0.0076   0.0016   0.0024   0.0017   0.00    6.1
2025/08/02 00:13:49.000        17.9925       -21.3354         0.3085   1  10   0.0031   0.0037   0.0075   0.0017   0.0023   0.0016   0.00    6.1
2025/08/02 00:13:50.000        17.9927       -21.3338         0.2978   1  10   0.0033   0.0037   0.0075   0.0017   0.0025   0.0017   0.00    6.1
2025/08/02 00:13:51.000        17.9947       -21.3351         0.3037   1  10   0.0030   0.0036   0.0076   0.0019   0.0025   0.0014   0.00    6.1
2025/08/02 00:13:52.000        17.9909       -21.3362         0.2942   1  10   0.0028   0.0038   0.0075   0.0017   0.0023   0.0016   0.00    6.2
2025/08/02 00:13:53.000        17.9920       -21.3328         0.3018   1  10   0.0030   0.0037   0.0075   0.0016   0.0023   0.0017   0.00    6.2
2025/08/02 00:13:54.000        17.9914       -21.3351         0.2945   1  10   0.0030   0.0037   0.0075   0.0018   0.0025   0.0017   0.00    6.2
2025/08/02 00:13:55.000        17.9928       -21.3340         0.2920   1  10   0.0033   0.0036   0.0075   0.0016   0.0024   0.0016   0.00    6.2
2025/08/02 00:13:56.000        17.9943       -21.3349         0.2887   1  10   0.0031   0.0037   0.0075   0.0017   0.0025   0.0014   0.00    6.2
2025/08/02 00:13:57.000        17.9997       -21.3310         0.2826   1  10   0.0029   0.0037   0.0075   0.0018   0.0024   0.0016   0.00    6.2
2025/08/02 00:13:58.000        18.0025       -21.3262         0.2773   1  10   0.0031   0.0038   0.0075   0.0019   0.0025   0.0014   0.00    6.2
2025/08/02 00:13:59.000        17.9993       -21.3340         0.2741   1  10   0.0029   0.0036   0.0075   0.0018   0.0025   0.0014   0.00    6.2
2025/08/02 00:14:00.000        18.0003       -21.3248         0.2794   1  11   0.0029   0.0037   0.0072   0.0014   0.0014   0.0015   0.00    6.2
2025/08/02 00:14:01.000        18.0006       -21.3229         0.2716   1  11   0.0030   0.0034   0.0072   0.0010   0.0017   0.0008   0.00    6.2
2025/08/02 00:14:02.000        17.9956       -21.3260         0.2588   1  11   0.0029   0.0034   0.0072   0.0013   0.0015   0.0007   0.00    6.2
2025/08/02 00:14:03.000        17.9934       -21.3341         0.2708   1  11   0.0029   0.0036   0.0071   0.0012   0.0012   0.0012   0.00    6.2
2025/08/02 00:14:04.000        17.9863       -21.3367         0.2593   1  11   0.0029   0.0034   0.0071   0.0011   0.0014   0.0012   0.00    6.2
2025/08/02 00:14:05.000        17.9998       -21.3334         0.2650   1  11   0.0029   0.0032   0.0071   0.0012   0.0014   0.0005   0.00    6.2
2025/08/02 00:14:06.000        17.9951       -21.3308         0.2617   1  11   0.0028   0.0034   0.0070   0.0015   0.0010   0.0010   0.00    6.2
2025/08/02 00:14:07.000        17.9991       -21.3250         0.2609   1  11   0.0029   0.0034   0.0071   0.0013   0.0012  -0.0004   0.00    6.2
2025/08/02 00:14:08.000        18.0023       -21.3244         0.2679   1  11   0.0030   0.0034   0.0071   0.0012   0.0010   0.0007   0.00    6.3
2025/08/02 00:14:09.000        17.9946       -21.3326         0.2816   1  11   0.0028   0.0033   0.0071   0.0013   0.0013  -0.0005   0.00    6.3
2025/08/02 00:14:10.000        17.9908       -21.3325         0.2837   1  11   0.0028   0.0034   0.0071   0.0011   0.0013   0.0011   0.00    6.3
2025/08/02 00:14:11.000        17.9881       -21.3330         0.2948   1  11   0.0029   0.0035   0.0070   0.0011   0.0010   0.0005   0.00    6.3
2025/08/02 00:14:12.000        17.9948       -21.3262         0.2844   1  11   0.0028   0.0032   0.0071   0.0014   0.0013   0.0011   0.00    6.3
2025/08/02 00:14:13.000        18.0050       -21.3249         0.2800   1  11   0.0028   0.0032   0.0071   0.0013   0.0008   0.0015   0.00    6.3
2025/08/02 00:14:14.000        18.0030       -21.3198         0.2793   1  11   0.0028   0.0036   0.0069   0.0016  -0.0005   0.0011   0.00    6.3
2025/08/02 00:14:15.000        17.9991       -21.3248         0.2858   1  11   0.0029   0.0035   0.0071   0.0012   0.0012   0.0008   0.00    6.4
2025/08/02 00:14:16.000        17.9996       -21.3284         0.2840   1  11   0.0030   0.0035   0.0070   0.0012   0.0008   0.0007   0.00    6.4
2025/08/02 00:14:17.000        17.9935       -21.3329         0.2923   1  11   0.0029   0.0034   0.0070   0.0013   0.0011   0.0010   0.00    6.4
2025/08/02 00:14:18.000        17.9874       -21.3355         0.2950   1  11   0.0027   0.0031   0.0071   0.0012   0.0016   0.0007   0.00    6.4
2025/08/02 00:14:19.000        17.9957       -21.3303         0.3139   1  11   0.0029   0.0034   0.0071   0.0013   0.0012  -0.0005   0.00    6.4
2025/08/02 00:14:20.000        18.0061       -21.3238         0.3087   1  11   0.0030   0.0033   0.0070   0.0012   0.0010  -0.0005   0.00    6.4
2025/08/02 00:14:21.000        18.0104       -21.3195         0.3057   1  11   0.0030   0.0033   0.0071   0.0012   0.0013   0.0007   0.00    6.4
2025/08/02 00:14:22.000        18.0108       -21.3145         0.2981   1  11   0.0027   0.0033   0.0071   0.0011   0.0011   0.0009   0.00    6.4
2025/08/02 00:14:23.000        18.0037       -21.3260         0.2758   1  10   0.0032   0.0037   0.0075   0.0017   0.0024   0.0016   0.00    6.4
2025/08/02 00:14:24.000        18.0040       -21.3266         0.2689   1  10   0.0030   0.0038   0.0075   0.0017   0.0024   0.0016   0.00    6.4
2025/08/02 00:14:25.000        17.9903       -21.3337         0.2742   1  10   0.0028   0.0037   0.0075   0.0018   0.0024   0.0018   0.00    6.4
2025/08/02 00:14:26.000        17.9876       -21.3374         0.2723   1  10   0.0028   0.0038   0.0075   0.0017   0.0023   0.0017   0.00    6.4
2025/08/02 00:14:27.000        17.9930       -21.3345         0.2805   1  10   0.0030   0.0036   0.0075   0.0017   0.0026   0.0015   0.00    6.5
2025/08/02 00:14:28.000        17.9976       -21.3282         0.2792   1  10   0.0031   0.0040   0.0075   0.0017   0.0023   0.0015   0.00    6.5
2025/08/02 00:14:29.000        18.0082       -21.3235         0.2827   1  10   0.0031   0.0038   0.0075   0.0016   0.0024   0.0017   0.00    6.5
2025/08/02 00:14:30.000        18.0136       -21.3224         0.2689   1  10   0.0031   0.0039   0.0075   0.0019   0.0022   0.0019   0.00    6.5
2025/08/02 00:14:31.000        18.0067       -21.3233         0.2613   1  10   0.0030   0.0038   0.0075   0.0018   0.0025   0.0014   0.00    6.5
2025/08/02 00:14:32.000        18.0040       -21.3258         0.2647   1  11   0.0033   0.0033   0.0071   0.0011   0.0012   0.0009   0.00    6.5
2025/08/02 00:14:33.000        17.9960       -21.3271         0.2518   1  11   0.0027   0.0036   0.0070   0.0014   0.0007   0.0010   0.00    6.5
2025/08/02 00:14:34.000        17.9871       -21.3302         0.2610   1  11   0.0027   0.0034   0.0071   0.0010   0.0011   0.0010   0.00    6.5
2025/08/02 00:14:35.000        17.9929       -21.3319         0.2624   1  11   0.0028   0.0035   0.0071   0.0011   0.0007   0.0012   0.00    6.5
2025/08/02 00:14:36.000        17.9950       -21.3287         0.2854   1  11   0.0030   0.0034   0.0070   0.0014   0.0010   0.0011   0.00    6.5
2025/08/02 00:14:37.000        18.0011       -21.3270         0.2773   1  11   0.0029   0.0033   0.0070   0.0014   0.0009   0.0011   0.00    6.5
2025/08/02 00:14:38.000        17.9950       -21.3307         0.2772   1  11   0.0031   0.0034   0.0071   0.0011   0.0010   0.0008   0.00    6.5
2025/08/02 00:14:39.000        17.9929       -21.3290         0.2886   1  11   0.0029   0.0035   0.0070   0.0013   0.0009   0.0010   0.00    3.3
2025/08/02 00:14:40.000        17.9901       -21.3308         0.2943   1  11   0.0028   0.0031   0.0071   0.0012   0.0013  -0.0004   0.00    3.4
2025/08/02 00:14:41.000        17.9867       -21.3325         0.2975   1  11   0.0029   0.0033   0.0070   0.0015  -0.0003   0.0009   0.00    3.4
2025/08/02 00:14:42.000        17.9844       -21.3333         0.2947   1  11   0.0030   0.0032   0.0071   0.0012   0.0012   0.0011   0.00    3.5
2025/08/02 00:14:43.000        17.9833       -21.3358         0.3019   1  11   0.0029   0.0033   0.0070   0.0012   0.0009   0.0009   0.00    3.6
2025/08/02 00:14:44.000        17.9841       -21.3380         0.2945   1  11   0.0031   0.0033   0.0070   0.0012   0.0010   0.0009   0.00    3.6
2025/08/02 00:14:45.000        17.9803       -21.3405         0.3030   1  11   0.0027   0.0035   0.0070   0.0015   0.0003   0.0013   0.00    3.7
2025/08/02 00:14:46.000        17.9769       -21.3427         0.2992   1  11   0.0030   0.0031   0.0071   0.0012   0.0013  -0.0005   0.00    3.8
2025/08/02 00:14:47.000        17.9739       -21.3461         0.2951   1  11   0.0029   0.0035   0.0070   0.0013   0.0007   0.0008   0.00    3.8
2025/08/02 00:14:48.000        17.9724       -21.3491         0.2986   1  11   0.0030   0.0034   0.0070   0.0016   0.0008   0.0011   0.00    3.9
2025/08/02 00:14:49.000        17.9604       -21.3554         0.2887   1  11   0.0027   0.0035   0.0070   0.0013   0.0009   0.0007   0.00    4.0
2025/08/02 00:14:50.000        17.9622       -21.3587         0.2907   1  11   0.0027   0.0033   0.0070   0.0013   0.0008   0.0006   0.00    4.1
2025/08/02 00:14:51.000        17.9591       -21.3598         0.2943   1  11   0.0030   0.0033   0.0071   0.0010   0.0011   0.0008   0.00    4.2
2025/08/02 00:14:52.000        17.9582       -21.3554         0.3023   1  11   0.0028   0.0035   0.0070   0.0009   0.0011   0.0005   0.00    4.2
2025/08/02 00:14:53.000        17.9591       -21.3592         0.2841   1  11   0.0027   0.0036   0.0070   0.0013   0.0008   0.0005   0.00    4.3
2025/08/02 00:14:54.000        17.9586       -21.3591         0.2674   1  11   0.0029   0.0033   0.0070   0.0013   0.0010   0.0005   0.00    4.4
2025/08/02 00:14:55.000        17.9539       -21.3654         0.2633   1  11   0.0029   0.0033   0.0070   0.0008   0.0009   0.0008   0.00    4.4
2025/08/02 00:14:56.000        17.9498       -21.3672         0.2643   1  11   0.0029   0.0033   0.0070   0.0011   0.0007   0.0011   0.00    4.5
2025/08/02 00:14:57.000        17.9365       -21.3772         0.2605   1  11   0.0028   0.0034   0.0070   0.0009   0.0012   0.0010   0.00    4.6
2025/08/02 00:14:58.000        17.9328       -21.3808         0.2622   1  11   0.0027   0.0034   0.0069   0.0012   0.0002   0.0008   0.00    4.7
2025/08/02 00:14:59.000        17.9269       -21.3846         0.2750   1  11   0.0030   0.0033   0.0070   0.0014   0.0007   0.0007   0.00    4.8
2025/08/02 00:15:00.000        17.9297       -21.3857         0.2763   1  11   0.0030   0.0032   0.0071   0.0010   0.0014   0.0007   0.00    4.8
2025/08/02 00:15:01.000        17.9346       -21.3761         0.2743   1  11   0.0028   0.0034   0.0070   0.0013   0.0010   0.0006   0.00    4.9
2025/08/02 00:15:02.000        17.9447       -21.3703         0.2745   1  11   0.0025   0.0033   0.0070   0.0010   0.0011   0.0006   0.00    5.0
2025/08/02 00:15:03.000        17.9472       -21.3714         0.2772   1  11   0.0027   0.0031   0.0070   0.0014   0.0013   0.0001   0.00    5.1
2025/08/02 00:15:04.000        17.9373       -21.3790         0.2620   1  11   0.0030   0.0036   0.0069   0.0012   0.0006   0.0011   0.00    5.2
2025/08/02 00:15:05.000        17.9229       -21.3903         0.2599   1  11   0.0030   0.0033   0.0070   0.0013   0.0008   0.0004   0.00    5.3
2025/08/02 00:15:06.000        17.9171       -21.4005         0.2666   1  11   0.0029   0.0031   0.0070   0.0011   0.0013   0.0009   0.00    5.4
2025/08/02 00:15:07.000        17.9143       -21.3980         0.2563   1  11   0.0029   0.0033   0.0071   0.0012   0.0013   0.0005   0.00    5.5
2025/08/02 00:15:08.000        17.9191       -21.3959         0.2786   1  11   0.0029   0.0034   0.0070   0.0011   0.0011  -0.0005   0.00    5.6
2025/08/02 00:15:09.000        17.9254       -21.3841         0.2958   1  11   0.0028   0.0034   0.0070   0.0010   0.0011   0.0003   0.00    5.7
2025/08/02 00:15:10.000        17.9332       -21.3787         0.2923   1  11   0.0030   0.0034   0.0071   0.0014   0.0012   0.0011   0.00    5.7
2025/08/02 00:15:11.000        17.9383       -21.3826         0.3016   1  11   0.0028   0.0035   0.0070   0.0014   0.0008  -0.0004   0.00    5.8
2025/08/02 00:15:12.000        17.9201       -21.3891         0.2917   1  11   0.0029   0.0034   0.0070   0.0015   0.0004   0.0012   0.00    5.9
2025/08/02 00:15:13.000        17.9087       -21.3932         0.2846   1  11   0.0026   0.0036   0.0069   0.0012   0.0001   0.0011   0.00    6.0
2025/08/02 00:15:14.000        17.9105       -21.3964         0.2784   1  11   0.0032   0.0031   0.0071   0.0011   0.0014  -0.0002   0.00    6.0
2025/08/02 00:15:15.000        17.9106       -21.3996         0.2768   1  11   0.0028   0.0034   0.0070   0.0012   0.0011  -0.0007   0.00    6.0
2025/08/02 00:15:16.000        17.9141       -21.3967         0.2863   1  11   0.0030   0.0032   0.0070   0.0013   0.0007   0.0011   0.00    6.0
2025/08/02 00:15:17.000        17.9195       -21.3949         0.2871   1  11   0.0029   0.0031   0.0070   0.0014   0.0011   0.0010   0.00    6.0
2025/08/02 00:15:18.000        17.9145       -21.3951         0.2792   1  11   0.0028   0.0032   0.0070   0.0011   0.0009   0.0006   0.00    6.0
2025/08/02 00:15:19.000        17.9204       -21.3931         0.2878   1  11   0.0029   0.0034   0.0069   0.0016   0.0008   0.0009   0.00    6.0
2025/08/02 00:15:20.000        17.9108       -21.4010         0.2813   1  11   0.0030   0.0034   0.0071   0.0013   0.0012   0.0013   0.00    6.1
2025/08/02 00:15:21.000        17.9067       -21.4006         0.2700   1  11   0.0030   0.0032   0.0071   0.0006   0.0015   0.0007   0.00    6.0
2025/08/02 00:15:22.000        17.9015       -21.4130         0.2631   1  11   0.0029   0.0032   0.0070   0.0014   0.0010   0.0012   0.00    6.1
2025/08/02 00:15:23.000        17.8908       -21.4139         0.2483   1  11   0.0030   0.0034   0.0070   0.0010   0.0011   0.0010   0.00    6.1
2025/08/02 00:15:24.000        17.8898       -21.4084         0.2578   1  11   0.0026   0.0035   0.0070   0.0012   0.0011   0.0007   0.00    6.1
2025/08/02 00:15:25.000        17.8968       -21.4116         0.2526   1  11   0.0029   0.0035   0.0070   0.0015   0.0007   0.0005   0.00    6.0
2025/08/02 00:15:26.000        17.9039       -21.4033         0.2772   1  11   0.0030   0.0034   0.0070   0.0013   0.0011   0.0007   0.00    6.1
2025/08/02 00:15:27.000        17.9095       -21.4037         0.2724   1  11   0.0027   0.0033   0.0070   0.0013   0.0011   0.0010   0.00    6.1
2025/08/02 00:15:28.000        17.9080       -21.4060         0.2776   1  11   0.0028   0.0035   0.0070   0.0012   0.0010   0.0007   0.00    6.0
2025/08/02 00:15:29.000        17.8960       -21.4124         0.2736   1  11   0.0029   0.0034   0.0070   0.0015   0.0007   0.0014   0.00    6.0
2025/08/02 00:15:30.000        17.8958       -21.4159         0.2793   1  11   0.0028   0.0034   0.0070   0.0011   0.0010   0.0011   0.00    6.0
2025/08/02 00:15:31.000        17.8980       -21.4145         0.2712   1  11   0.0025   0.0035   0.0071   0.0012   0.0012   0.0008   0.00    6.0
2025/08/02 00:15:32.000        17.8953       -21.4135         0.2674   1  11   0.0028   0.0035   0.0070   0.0009   0.0008   0.0010   0.00    6.0
2025/08/02 00:15:33.000        17.8902       -21.4179         0.2586   1  11   0.0029   0.0032   0.0070   0.0011   0.0011   0.0010   0.00    6.0
2025/08/02 00:15:34.000        17.8945       -21.4119         0.2754   1  11   0.0029   0.0034   0.0070   0.0014   0.0009   0.0009   0.00    6.0
2025/08/02 00:15:35.000        17.9039       -21.4069         0.2834   1  11   0.0030   0.0032   0.0071   0.0010   0.0012   0.0006   0.00    6.0
2025/08/02 00:15:36.000        17.8991       -21.4066         0.2884   1  11   0.0029   0.0034   0.0070   0.0011   0.0010   0.0010   0.00    6.0
2025/08/02 00:15:37.000        17.8983       -21.4158         0.2868   1  11   0.0029   0.0035   0.0070   0.0013   0.0010   0.0009   0.00    6.0
2025/08/02 00:15:38.000        17.8917       -21.4215         0.2806   1  11   0.0031   0.0034   0.0070   0.0014   0.0005   0.0013   0.00    6.0
2025/08/02 00:15:39.000        17.8801       -21.4268         0.2755   1  11   0.0029   0.0033   0.0071   0.0006   0.0013   0.0008   0.00    6.0
2025/08/02 00:15:40.000        17.8826       -21.4239         0.2889   1  11   0.0028   0.0032   0.0070   0.0014   0.0013  -0.0009   0.00    6.0
2025/08/02 00:15:41.000        17.8862       -21.4233         0.2875   1  11   0.0028   0.0033   0.0071   0.0009   0.0013   0.0006   0.00    6.0
2025/08/02 00:15:42.000        17.8955       -21.4116         0.2860   1  11   0.0031   0.0034   0.0070   0.0010   0.0013   0.0006   0.00    6.0
2025/08/02 00:15:43.000        17.8999       -21.4106         0.2792   1  11   0.0032   0.0035   0.0071   0.0011   0.0012   0.0008   0.00    6.0
2025/08/02 00:15:44.000        17.8966       -21.4094         0.2777   1  11   0.0029   0.0035   0.0070   0.0015   0.0011   0.0006   0.00    6.0
2025/08/02 00:15:45.000        17.8919       -21.4190         0.2718   1  11   0.0028   0.0036   0.0071   0.0013   0.0013   0.0010   0.00    6.0
2025/08/02 00:15:46.000        17.8796       -21.4266         0.2811   1  11   0.0026   0.0034   0.0071   0.0013   0.0015   0.0008   0.00    6.0
2025/08/02 00:15:47.000        17.8717       -21.4288         0.2757   1  11   0.0027   0.0037   0.0072   0.0015   0.0016   0.0015   0.00    6.0
2025/08/02 00:15:48.000        17.8787       -21.4280         0.2745   1  10   0.0031   0.0040   0.0074   0.0018   0.0023   0.0016   0.00    7.2
2025/08/02 00:15:49.000        17.8873       -21.4200         0.2613   1  10   0.0031   0.0038   0.0074   0.0018   0.0024   0.0017   0.00    7.3
2025/08/02 00:15:50.000        17.8837       -21.4248         0.2705   1  10   0.0031   0.0038   0.0075   0.0017   0.0024   0.0014   0.00    7.3
2025/08/02 00:15:51.000        17.8871       -21.4245         0.2690   1  10   0.0030   0.0040   0.0074   0.0017   0.0023   0.0017   0.00    7.3
2025/08/02 00:15:52.000        17.8855       -21.4277         0.2559   1  10   0.0029   0.0039   0.0074   0.0019   0.0023   0.0013   0.00    7.3
2025/08/02 00:15:53.000        17.8799       -21.4237         0.2768   1  10   0.0030   0.0038   0.0075   0.0018   0.0023   0.0017   0.00    7.3
2025/08/02 00:15:54.000        17.8778       -21.4309         0.2667   1  10   0.0032   0.0036   0.0075   0.0016   0.0025   0.0016   0.00    7.3
2025/08/02 00:15:55.000        17.8762       -21.4302         0.2589   1  10   0.0029   0.0037   0.0075   0.0015   0.0024   0.0016   0.00    7.3
2025/08/02 00:15:56.000        17.8810       -21.4243         0.2626   1  10   0.0030   0.0038   0.0074   0.0019   0.0023   0.0017   0.00    7.3
2025/08/02 00:15:57.000        17.8789       -21.4247         0.2564   1  10   0.0028   0.0037   0.0074   0.0018   0.0024   0.0014   0.00    7.3
2025/08/02 00:15:58.000        17.8769       -21.4286         0.2657   1  10   0.0033   0.0036   0.0075   0.0018   0.0025   0.0017   0.00    7.3
2025/08/02 00:15:59.000        17.8717       -21.4272         0.2745   1  10   0.0029   0.0037   0.0074   0.0018   0.0024   0.0014   0.00    7.3
2025/08/02 00:16:00.000        17.8765       -21.4324         0.2765   1  10   0.0029   0.0040   0.0074   0.0018   0.0021   0.0019   0.00    7.3
2025/08/02 00:16:01.000        17.8836       -21.4244         0.2800   1  10   0.0028   0.0038   0.0074   0.0017   0.0022   0.0016   0.00    7.3
2025/08/02 00:16:02.000        17.8868       -21.4205         0.2802   1  10   0.0031   0.0037   0.0074   0.0019   0.0023   0.0019   0.00    7.4
2025/08/02 00:16:03.000        17.8791       -21.4251         0.2737   1  10   0.0029   0.0039   0.0075   0.0016   0.0023   0.0015   0.00    7.4
2025/08/02 00:16:04.000        17.8772       -21.4323         0.2734   1  10   0.0032   0.0038   0.0074   0.0017   0.0024   0.0016   0.00    7.4
2025/08/02 00:16:05.000        17.8815       -21.4290         0.2699   1  10   0.0029   0.0036   0.0075   0.0017   0.0023   0.0015   0.00    7.4
2025/08/02 00:16:06.000        17.8808       -21.4260         0.2813   1  10   0.0030   0.0040   0.0074   0.0017   0.0022   0.0020   0.00    7.4
2025/08/02 00:16:07.000        17.8809       -21.4252         0.2714   1  10   0.0031   0.0037   0.0075   0.0017   0.0024   0.0018   0.00    7.4
2025/08/02 00:16:08.000        17.8767       -21.4238         0.2537   1  10   0.0029   0.0039   0.0074   0.0016   0.0023   0.0015   0.00    7.4
2025/08/02 00:16:09.000        17.8820       -21.4244         0.2672   1  10   0.0029   0.0039   0.0075   0.0016   0.0025   0.0013   0.00    7.4
